timestamp,rollspeed,pitchspeed,yawspeed,q[0],q[1],q[2],q[3],delta_q_reset[0],delta_q_reset[1],delta_q_reset[2],delta_q_reset[3],quat_reset_counter
10640552,0.3649985,-0.10171904,-0.022074535,0.95756924,0.08897023,-0.03466387,-0.27192625,0.98082376,0.003101621,0.00893199,-0.19466755,1
10644549,0.36745578,-0.10654999,-0.025018435,0.95749795,0.0896263,-0.035043452,-0.27191323,0.98082376,0.003101621,0.00893199,-0.19466755,1
10676518,0.35329822,-0.17466749,-0.08012538,0.9567279,0.09474832,-0.038609814,-0.2724039,0.98082376,0.003101621,0.00893199,-0.19466755,1
10708518,0.32269853,-0.2681205,-0.1019519,0.95574194,0.09870182,-0.04318597,-0.27377084,0.98082376,0.003101621,0.00893199,-0.19466755,1
10741331,0.4194523,-0.30512476,-0.12242846,0.95444256,0.10348813,-0.04927559,-0.27550253,0.98082376,0.003101621,0.00893199,-0.19466755,1
10773321,0.5030744,-0.3226728,-0.09817919,0.95294803,0.10947329,-0.05573086,-0.2771276,0.98082376,0.003101621,0.00893199,-0.19466755,1
10801331,0.44474295,-0.38420546,-0.13098928,0.951549,0.114610784,-0.062007047,-0.2785211,0.98082376,0.003101621,0.00893199,-0.19466755,1
10833452,0.51515347,-0.4955564,-0.1309245,0.9496627,0.11998654,-0.070375204,-0.2806979,0.98082376,0.003101621,0.00893199,-0.19466755,1
10866157,0.38809896,-0.64685893,-0.15918398,0.947399,0.12469717,-0.081141174,-0.283376,0.98082376,0.003101621,0.00893199,-0.19466755,1
10898162,0.29470792,-0.727298,-0.15765297,0.9451136,0.12673509,-0.09290608,-0.2864733,0.98082376,0.003101621,0.00893199,-0.19466755,1
10930125,0.36097163,-0.6892738,-0.12831691,0.9427043,0.12884629,-0.10494553,-0.28929853,0.98082376,0.003101621,0.00893199,-0.19466755,1
10958138,0.30037528,-0.64834964,-0.10724202,0.94069546,0.13053188,-0.114843346,-0.29131493,0.98082376,0.003101621,0.00893199,-0.19466755,1
10990917,0.4752514,-0.6131415,-0.026219048,0.93839985,0.1336755,-0.12616709,-0.2926065,0.98082376,0.003101621,0.00893199,-0.19466755,1
11022914,0.4176606,-0.59385884,-0.05728069,0.93595845,0.13773201,-0.1371639,-0.29359454,0.98082376,0.003101621,0.00893199,-0.19466755,1
11054956,0.27243507,-0.60500914,-0.060294878,0.9336479,0.13964885,-0.1474537,-0.2950548,0.98082376,0.003101621,0.00893199,-0.19466755,1
11087741,0.32836202,-0.5674257,-0.07096195,0.93116957,0.14138469,-0.15776986,-0.29671913,0.98082376,0.003101621,0.00893199,-0.19466755,1
11119739,0.25266623,-0.47265333,-0.054514527,0.92887324,0.14368622,-0.16690147,-0.29781327,0.98082376,0.003101621,0.00893199,-0.19466755,1
11147729,0.31390184,-0.42139798,-0.04226479,0.92707944,0.14534616,-0.17366181,-0.29873064,0.98082376,0.003101621,0.00893199,-0.19466755,1
11179721,0.41603374,-0.42275277,-0.005179405,0.9249311,0.14917319,-0.18191348,-0.29859227,0.98082376,0.003101621,0.00893199,-0.19466755,1
11212543,0.33847496,-0.39423144,0.026376795,0.9229065,0.15276256,-0.19002384,-0.29799017,0.98082376,0.003101621,0.00893199,-0.19466755,1
11244516,0.39795074,-0.40981692,0.08244446,0.9211798,0.15572058,-0.19791672,-0.29666138,0.98082376,0.003101621,0.00893199,-0.19466755,1
11276516,0.4427648,-0.40306425,0.12721747,0.91934377,0.1599032,-0.20640598,-0.29433775,0.98082376,0.003101621,0.00893199,-0.19466755,1
11308537,0.40853631,-0.45102572,0.18331736,0.9176581,0.16348268,-0.21525119,-0.29128006,0.98082376,0.003101621,0.00893199,-0.19466755,1
11337340,0.40636992,-0.5302335,0.24290204,0.91616154,0.16594793,-0.22412105,-0.28788742,0.98082376,0.003101621,0.00893199,-0.19466755,1
11369332,0.5328425,-0.6351604,0.35041663,0.9142819,0.16878872,-0.23589195,-0.2827613,0.98082376,0.003101621,0.00893199,-0.19466755,1
11401339,0.4741928,-0.7099887,0.4483992,0.9121946,0.1717431,-0.24953839,-0.2759275,0.98082376,0.003101621,0.00893199,-0.19466755,1
11434146,0.42198667,-0.7524492,0.5247277,0.9102539,0.17260109,-0.2640273,-0.26820955,0.98082376,0.003101621,0.00893199,-0.19466755,1
11466164,0.43186283,-0.847641,0.59106636,0.908159,0.17296273,-0.27924055,-0.2595302,0.98082376,0.003101621,0.00893199,-0.19466755,1
11494125,0.32158977,-0.9243403,0.6385972,0.90611106,0.1717976,-0.29348615,-0.25162318,0.98082376,0.003101621,0.00893199,-0.19466755,1
11526332,0.37484244,-0.9853705,0.70199364,0.90346444,0.16955517,-0.31072873,-0.24176577,0.98082376,0.003101621,0.00893199,-0.19466755,1
11558121,0.3642983,-0.9788615,0.748679,0.90049714,0.16727158,-0.32826564,-0.23101264,0.98082376,0.003101621,0.00893199,-0.19466755,1
11590914,0.47701165,-0.93875694,0.79362655,0.897276,0.16561532,-0.3459618,-0.21858141,0.98082376,0.003101621,0.00893199,-0.19466755,1
11622932,0.51580805,-0.9738816,0.81245506,0.89362323,0.16505383,-0.3634044,-0.20526107,0.98082376,0.003101621,0.00893199,-0.19466755,1
11654939,0.43456554,-1.019171,0.8001409,0.8893645,0.16370095,-0.38120082,-0.19214289,0.98082376,0.003101621,0.00893199,-0.19466755,1
11683743,0.4954585,-1.0333546,0.7893439,0.88501775,0.16215551,-0.39726803,-0.18063058,0.98082376,0.003101621,0.00893199,-0.19466755,1
11715714,0.6022105,-1.1025194,0.7775361,0.87908673,0.16211826,-0.4159096,-0.16716334,0.98082376,0.003101621,0.00893199,-0.19466755,1
11747717,0.5305901,-1.1437999,0.7773138,0.8722039,0.16213095,-0.4351631,-0.1536459,0.98082376,0.003101621,0.00893199,-0.19466755,1
11779732,0.4639174,-1.1464536,0.7391199,0.8649022,0.16092606,-0.45402724,-0.14108987,0.98082376,0.003101621,0.00893199,-0.19466755,1
11812521,0.45149386,-1.1728563,0.7359527,0.8566606,0.15965015,-0.4733878,-0.12864047,0.98082376,0.003101621,0.00893199,-0.19466755,1
11844523,0.43385646,-1.1735951,0.7080954,0.8481269,0.15776403,-0.49198356,-0.11723292,0.98082376,0.003101621,0.00893199,-0.19466755,1
11872553,0.5913157,-1.2319841,0.6943584,0.8397727,0.1574177,-0.5085008,-0.106904455,0.98082376,0.003101621,0.00893199,-0.19466755,1
11904552,0.4707019,-1.203999,0.6759491,0.8294695,0.15746704,-0.52737343,-0.09519262,0.98082376,0.003101621,0.00893199,-0.19466755,1
11937332,0.3230549,-1.1555517,0.6365645,0.8192175,0.15524586,-0.5454609,-0.08517053,0.98082376,0.003101621,0.00893199,-0.19466755,1
11969439,0.5543804,-1.1016608,0.64063364,0.80895936,0.15468794,-0.56220233,-0.07473283,0.98082376,0.003101621,0.00893199,-0.19466755,1
12001314,0.32392323,-1.0651139,0.59102386,0.7986938,0.15396903,-0.57807696,-0.06487602,0.98082376,0.003101621,0.00893199,-0.19466755,1
12033332,0.52026874,-1.009944,0.56208944,0.78858143,0.15283681,-0.59296936,-0.056280643,0.98082376,0.003101621,0.00893199,-0.19466755,1
12062121,0.46550024,-0.9971328,0.55889666,0.7792332,0.15321697,-0.6058491,-0.04761516,0.98082376,0.003101621,0.00893199,-0.19466755,1
12094142,0.29133388,-0.9876349,0.50281763,0.7689864,0.15180789,-0.6196745,-0.04022313,0.98082376,0.003101621,0.00893199,-0.19466755,1
12126155,0.50607145,-0.9279707,0.468251,0.7586789,0.15162049,-0.6327275,-0.032765683,0.98082376,0.003101621,0.00893199,-0.19466755,1
12158160,0.4495021,-0.918799,0.41939902,0.74829537,0.1525378,-0.6451018,-0.025101664,0.98082376,0.003101621,0.00893199,-0.19466755,1
12190975,0.41037706,-0.9267592,0.37627614,0.7375586,0.15280643,-0.6574923,-0.019012475,0.98082376,0.003101621,0.00893199,-0.19466755,1
12218982,0.50366795,-0.89431006,0.35892615,0.7281265,0.15417466,-0.6677467,-0.013279898,0.98082376,0.003101621,0.00893199,-0.19466755,1
12250932,0.40011653,-0.8599301,0.3342269,0.7176612,0.1553899,-0.67879343,-0.007482212,0.98082376,0.003101621,0.00893199,-0.19466755,1
12282914,0.48537704,-0.80484945,0.31317163,0.70750815,0.1565055,-0.6891546,-0.0020640173,0.98082376,0.003101621,0.00893199,-0.19466755,1
12315721,0.4902106,-0.7879798,0.32768238,0.6971741,0.15860449,-0.6991224,0.0045717037,0.98082376,0.003101621,0.00893199,-0.19466755,1
12347735,0.33391905,-0.7725124,0.30459192,0.68734163,0.15911528,-0.70862895,0.009423337,0.98082376,0.003101621,0.00893199,-0.19466755,1
12379714,0.3727452,-0.6919856,0.31586295,0.6780905,0.1590588,-0.7174275,0.013834206,0.98082376,0.003101621,0.00893199,-0.19466755,1
12407760,0.31426308,-0.61309505,0.3255749,0.67077756,0.15865102,-0.72427016,0.01788994,0.98082376,0.003101621,0.00893199,-0.19466755,1
12440543,0.3065627,-0.5348362,0.347939,0.66329914,0.15744048,-0.731261,0.022454737,0.98082376,0.003101621,0.00893199,-0.19466755,1
12472583,0.3691118,-0.55952317,0.35574597,0.6559768,0.156295,-0.73791105,0.02745418,0.98082376,0.003101621,0.00893199,-0.19466755,1
12504545,0.31046227,-0.52442867,0.35828918,0.64854795,0.15494016,-0.7445302,0.032465417,0.98082376,0.003101621,0.00893199,-0.19466755,1
12536518,0.23843797,-0.46587494,0.3604638,0.6421057,0.15241255,-0.7504271,0.036467914,0.98082376,0.003101621,0.00893199,-0.19466755,1
12565448,0.3642159,-0.47781414,0.3539744,0.6363618,0.15054686,-0.7554668,0.04061355,0.98082376,0.003101621,0.00893199,-0.19466755,1
12597315,0.37624392,-0.53527135,0.33884647,0.6292202,0.14915265,-0.7614033,0.04583156,0.98082376,0.003101621,0.00893199,-0.19466755,1
12629318,0.2547419,-0.46735847,0.29161432,0.62223136,0.1474384,-0.76720685,0.049838405,0.98082376,0.003101621,0.00893199,-0.19466755,1
12662189,0.28765735,-0.3992808,0.26002365,0.61623573,0.14546706,-0.7721995,0.052924167,0.98082376,0.003101621,0.00893199,-0.19466755,1
12694124,0.30726954,-0.36881608,0.22138856,0.6107951,0.14404944,-0.77654976,0.056120533,0.98082376,0.003101621,0.00893199,-0.19466755,1
12726122,0.35813195,-0.2850045,0.19138207,0.6061462,0.14339553,-0.78004426,0.059627112,0.98082376,0.003101621,0.00893199,-0.19466755,1
12754122,0.3250893,-0.32089528,0.14665574,0.60237217,0.14318763,-0.78278756,0.06236084,0.98082376,0.003101621,0.00893199,-0.19466755,1
12786924,0.32370204,-0.38081875,0.113479614,0.59727037,0.14315204,-0.78651524,0.064571135,0.98082376,0.003101621,0.00893199,-0.19466755,1
12818991,0.29794997,-0.35857633,0.09144789,0.59213775,0.14308088,-0.79026103,0.06624398,0.98082376,0.003101621,0.00893199,-0.19466755,1
12850914,0.3405749,-0.33622742,0.082521446,0.58736736,0.14302127,-0.79371077,0.06758464,0.98082376,0.003101621,0.00893199,-0.19466755,1
12882918,0.35441977,-0.3629177,0.07458608,0.5823943,0.14341833,-0.79714495,0.06934077,0.98082376,0.003101621,0.00893199,-0.19466755,1
12915735,0.323099,-0.32225138,0.08715101,0.5774786,0.14353046,-0.80054206,0.07106268,0.98082376,0.003101621,0.00893199,-0.19466755,1
12943727,0.330241,-0.27595654,0.13255392,0.57380897,0.14311935,-0.8030998,0.07273792,0.98082376,0.003101621,0.00893199,-0.19466755,1
12975742,0.40961772,-0.19627585,0.15832986,0.57015485,0.14274052,-0.8054627,0.076016024,0.98082376,0.003101621,0.00893199,-0.19466755,1
13007729,0.3571704,-0.13911779,0.16569604,0.5673987,0.14217412,-0.8071423,0.07979013,0.98082376,0.003101621,0.00893199,-0.19466755,1
13040524,0.25713623,-0.114851676,0.15210259,0.56523055,0.14118198,-0.8085269,0.082864,0.98082376,0.003101621,0.00893199,-0.19466755,1
13072621,0.3393363,-0.12028487,0.17840698,0.56315124,0.14016587,-0.8097985,0.08625928,0.98082376,0.003101621,0.00893199,-0.19466755,1
13104523,0.33139524,-0.10130963,0.18295151,0.56100357,0.13948986,-0.81095576,0.09037891,0.98082376,0.003101621,0.00893199,-0.19466755,1
13132540,0.31851438,-0.11082637,0.1770583,0.5592152,0.13910115,-0.8117948,0.09443778,0.98082376,0.003101621,0.00893199,-0.19466755,1
13165314,0.23241815,0.27422878,0.47767696,0.5613383,0.13194804,-0.810761,0.10077613,0.98082376,0.003101621,0.00893199,-0.19466755,1
13197318,0.21510899,0.13147727,0.48664656,0.56232435,0.12644327,-0.8098184,0.10953387,0.98082376,0.003101621,0.00893199,-0.19466755,1
13229366,-0.27349392,0.72768813,-0.122104526,0.56746405,0.1234244,-0.805723,0.11645395,0.98082376,0.003101621,0.00893199,-0.19466755,1
13261339,0.27139348,0.6183085,0.1683235,0.5751464,0.12298706,-0.7993969,0.12266034,0.98082376,0.003101621,0.00893199,-0.19466755,1
13290145,0.437405,0.6133483,0.08961819,0.5810217,0.123412035,-0.7938436,0.13036674,0.98082376,0.003101621,0.00893199,-0.19466755,1
13322124,0.19254424,0.6082509,0.14032505,0.58783776,0.1228273,-0.7878966,0.13630591,0.98082376,0.003101621,0.00893199,-0.19466755,1
13354121,-0.020126626,0.6948482,0.114974305,0.59544396,0.120487615,-0.7819258,0.13971862,0.98082376,0.003101621,0.00893199,-0.19466755,1
13386147,-0.20269872,0.6243724,-0.023257677,0.6041988,0.117078796,-0.7758715,0.13877985,0.98082376,0.003101621,0.00893199,-0.19466755,1
13418974,-0.12291234,0.48522142,0.024468698,0.6111417,0.11393751,-0.77100235,0.1381288,0.98082376,0.003101621,0.00893199,-0.19466755,1
13450934,-0.03737489,0.42654896,0.06543406,0.6167219,0.11160768,-0.7667865,0.13869523,0.98082376,0.003101621,0.00893199,-0.19466755,1
13479006,0.017529389,0.35899574,0.073719256,0.62067497,0.11008701,-0.7635618,0.14006068,0.98082376,0.003101621,0.00893199,-0.19466755,1
13511724,0.020168804,0.36615118,0.096403755,0.6248937,0.10824558,-0.7600393,0.14188401,0.98082376,0.003101621,0.00893199,-0.19466755,1
13543758,0.008726867,0.38644227,0.10693744,0.62908506,0.106374025,-0.7564647,0.14386725,0.98082376,0.003101621,0.00893199,-0.19466755,1
13575714,0.04349444,0.3536296,0.110658355,0.63308376,0.1046475,-0.7529247,0.1461453,0.98082376,0.003101621,0.00893199,-0.19466755,1
13607751,-0.011071531,0.33636606,0.088163905,0.6368567,0.102733396,-0.7496784,0.14778969,0.98082376,0.003101621,0.00893199,-0.19466755,1
13636523,0.03706216,0.31333113,0.09553985,0.6399965,0.10107181,-0.7469578,0.14914134,0.98082376,0.003101621,0.00893199,-0.19466755,1
13668608,-0.013422569,0.42755193,0.08186351,0.6440223,0.09929954,-0.74336904,0.15092203,0.98082376,0.003101621,0.00893199,-0.19466755,1
13700533,0.034601305,0.21234626,0.051625848,0.64832616,0.09734877,-0.7396875,0.1518516,0.98082376,0.003101621,0.00893199,-0.19466755,1
13732518,0.23320746,0.050794937,0.047790624,0.6491874,0.09769038,-0.7386706,0.15289909,0.98082376,0.003101621,0.00893199,-0.19466755,1
13765314,-0.15796888,-0.0033805538,0.07557413,0.64883834,0.09839077,-0.73830885,0.15565406,0.98082376,0.003101621,0.00893199,-0.19466755,1
13797369,0.106300876,-0.0011515021,0.03112892,0.6483822,0.09807072,-0.73851347,0.15678218,0.98082376,0.003101621,0.00893199,-0.19466755,1
13825324,0.0038123464,-0.010030794,0.046618193,0.647987,0.097700074,-0.7387595,0.15748657,0.98082376,0.003101621,0.00893199,-0.19466755,1
13857332,-0.029681576,-0.013430077,0.029929277,0.64763856,0.09700812,-0.7391213,0.15764982,0.98082376,0.003101621,0.00893199,-0.19466755,1
13890130,-0.014397934,-0.025623992,0.037315197,0.64722896,0.09635318,-0.7395656,0.15765032,0.98082376,0.003101621,0.00893199,-0.19466755,1
13922123,0.016697776,-0.029156134,0.048749276,0.64661914,0.09597871,-0.740022,0.158238,0.98082376,0.003101621,0.00893199,-0.19466755,1
13954138,0.0063358117,-0.013252571,0.043566104,0.64612275,0.09548938,-0.7404226,0.15868697,0.98082376,0.003101621,0.00893199,-0.19466755,1
13986125,-0.0059976117,-0.01655539,0.03772488,0.64574957,0.09503877,-0.74071527,0.15911019,0.98082376,0.003101621,0.00893199,-0.19466755,1
14014961,0.0037553192,-0.010608316,0.047497094,0.64548856,0.09455439,-0.7409217,0.15949652,0.98082376,0.003101621,0.00893199,-0.19466755,1
14046949,0.015630301,-0.010410446,0.05094824,0.6451724,0.094012074,-0.7411309,0.160123,0.98082376,0.003101621,0.00893199,-0.19466755,1
14079096,-0.00046326732,0.005050136,0.04584336,0.645003,0.09346217,-0.7412362,0.16063897,0.98082376,0.003101621,0.00893199,-0.19466755,1
14110941,-0.009426542,0.012549944,0.03995514,0.64498276,0.09278966,-0.74128187,0.16089949,0.98082376,0.003101621,0.00893199,-0.19466755,1
14143714,0.005957071,0.0070509855,0.041104503,0.6449074,0.092236705,-0.7413273,0.1613095,0.98082376,0.003101621,0.00893199,-0.19466755,1
14171739,0.0061542788,0.0045256857,0.044242643,0.64480597,0.0917593,-0.74139416,0.16167933,0.98082376,0.003101621,0.00893199,-0.19466755,1
14203725,-0.0043006614,0.00014289469,0.041288722,0.6446501,0.09122468,-0.7415127,0.16205962,0.98082376,0.003101621,0.00893199,-0.19466755,1
14235739,-0.0017659809,-0.0039705597,0.04212615,0.6444563,0.09070733,-0.74166965,0.16240203,0.98082376,0.003101621,0.00893199,-0.19466755,1
14268562,-0.00084755337,-0.002975298,0.04316975,0.64420336,0.09015431,-0.74188834,0.16271473,0.98082376,0.003101621,0.00893199,-0.19466755,1
14300519,-0.00011913432,-0.0047061145,0.04310707,0.64395833,0.08961127,-0.7420886,0.16307078,0.98082376,0.003101621,0.00893199,-0.19466755,1
14332528,-0.00413285,-0.0047603045,0.044926398,0.6437413,0.08901651,-0.7422764,0.16339853,0.98082376,0.003101621,0.00893199,-0.19466755,1
14360518,-0.002387253,-0.0045373254,0.044388484,0.6435635,0.08852244,-0.7424191,0.16371858,0.98082376,0.003101621,0.00893199,-0.19466755,1
14393314,0.0038284417,-0.0062005334,0.043324318,0.64338595,0.08796886,-0.7425577,0.16408584,0.98082376,0.003101621,0.00893199,-0.19466755,1
14425332,0.0019813175,0.0025704633,0.040835757,0.64325583,0.0874178,-0.7426612,0.16442154,0.98082376,0.003101621,0.00893199,-0.19466755,1
14457314,0.003086268,0.0066790786,0.042930137,0.6431465,0.08690508,-0.74274,0.16476485,0.98082376,0.003101621,0.00893199,-0.19466755,1
14490121,-0.0039394456,-0.00088262744,0.04052016,0.64306104,0.086372964,-0.742808,0.16507113,0.98082376,0.003101621,0.00893199,-0.19466755,1
14518122,-0.0026610526,0.0047860127,0.04019139,0.6429997,0.08592328,-0.7428569,0.1653246,0.98082376,0.003101621,0.00893199,-0.19466755,1
14550158,0.0017543666,0.0018011108,0.04191033,0.64292645,0.08542367,-0.7429138,0.16561292,0.98082376,0.003101621,0.00893199,-0.19466755,1
14582163,-0.0026037507,-0.005742166,0.042052157,0.64281726,0.08492054,-0.74300003,0.1659082,0.98082376,0.003101621,0.00893199,-0.19466755,1
14614944,0.0015011465,-0.001471756,0.043724082,0.6427252,0.08440768,-0.7430716,0.16620551,0.98082376,0.003101621,0.00893199,-0.19466755,1
14646914,0.0011072115,0.0027899481,0.04355072,0.64265,0.083921514,-0.74312323,0.1665113,0.98082376,0.003101621,0.00893199,-0.19466755,1
14679021,0.0010889466,-0.004107699,0.041406557,0.6425852,0.08347642,-0.743163,0.16680777,0.98082376,0.003101621,0.00893199,-0.19466755,1
14710925,-0.002109808,-0.0023158435,0.04192292,0.6425533,0.08300295,-0.74318707,0.16705935,0.98082376,0.003101621,0.00893199,-0.19466755,1
14739736,0.00022217678,0.0026201066,0.040416557,0.6425517,0.08259084,-0.7431849,0.16727905,0.98082376,0.003101621,0.00893199,-0.19466755,1
14771727,0.0013718395,-0.00030685775,0.041478455,0.64257246,0.082167886,-0.7431562,0.16753535,0.98082376,0.003101621,0.00893199,-0.19466755,1
14803718,0.00032281782,0.003845267,0.04099761,0.6426058,0.081749246,-0.7431189,0.16777737,0.98082376,0.003101621,0.00893199,-0.19466755,1
14835739,-0.00068231486,0.0005617216,0.041478835,0.64264804,0.081349716,-0.743073,0.16801275,0.98082376,0.003101621,0.00893199,-0.19466755,1
14868526,0.0003021527,-0.0057998598,0.041239716,0.6426914,0.08095328,-0.743024,0.1682551,0.98082376,0.003101621,0.00893199,-0.19466755,1
14896581,0.0024108104,0.0035126861,0.04278532,0.6427533,0.08061991,-0.7429552,0.168482,0.98082376,0.003101621,0.00893199,-0.19466755,1
14928527,0.0019264708,-0.0033670906,0.04301233,0.6428318,0.0802664,-0.74287003,0.16872692,0.98082376,0.003101621,0.00893199,-0.19466755,1
14960520,-0.0005778093,-0.003034817,0.042103074,0.6429373,0.07991985,-0.7427621,0.16896431,0.98082376,0.003101621,0.00893199,-0.19466755,1
14993341,0.0014550476,-0.0016465373,0.04076771,0.6430375,0.079585046,-0.74266154,0.16918296,0.98082376,0.003101621,0.00893199,-0.19466755,1
15025314,-0.0008673072,0.0003264509,0.040648844,0.6431592,0.0792751,-0.7425428,0.1693868,0.98082376,0.003101621,0.00893199,-0.19466755,1
15057419,-0.00061752927,-0.0065109124,0.03831011,0.64329565,0.07897883,-0.7424186,0.16955172,0.98082376,0.003101621,0.00893199,-0.19466755,1
15085318,-0.0011540856,0.0016332436,0.03954063,0.6434475,0.07872947,-0.74228346,0.16968285,0.98082376,0.003101621,0.00893199,-0.19466755,1
15118146,0.0004364783,-0.0019650366,0.03887233,0.64363074,0.07845911,-0.74211913,0.16983218,0.98082376,0.003101621,0.00893199,-0.19466755,1
15150163,0.0016674984,0.0019528437,0.04101163,0.64381796,0.07821875,-0.7419473,0.16998419,0.98082376,0.003101621,0.00893199,-0.19466755,1
15182195,0.0016808794,0.0023416914,0.039796915,0.6439994,0.07799552,-0.7417818,0.17012145,0.98082376,0.003101621,0.00893199,-0.19466755,1
15214134,0.0031844722,0.0005169567,0.040657237,0.64418906,0.07778234,-0.741606,0.17026728,0.98082376,0.003101621,0.00893199,-0.19466755,1
15242928,0.003486716,0.005660897,0.041807607,0.644366,0.07759645,-0.74143696,0.17041856,0.98082376,0.003101621,0.00893199,-0.19466755,1
15274917,-0.0001669759,-0.0019167457,0.041456774,0.64455694,0.07739784,-0.7412635,0.1705414,0.98082376,0.003101621,0.00893199,-0.19466755,1
15306932,0.0011988832,-0.0026861038,0.039926346,0.644758,0.077188544,-0.74108434,0.17065503,0.98082376,0.003101621,0.00893199,-0.19466755,1
15338974,0.0021468254,0.0058406256,0.039752085,0.6449737,0.07700926,-0.74089193,0.17075624,0.98082376,0.003101621,0.00893199,-0.19466755,1
15371719,0.00015824614,0.0026224274,0.04014287,0.64520884,0.07683556,-0.74068165,0.17085871,0.98082376,0.003101621,0.00893199,-0.19466755,1
15403756,0.0022518167,-1.8756837e-05,0.039212517,0.6454219,0.076681085,-0.7404933,0.1709393,0.98082376,0.003101621,0.00893199,-0.19466755,1
15431724,0.003067823,0.004278954,0.039674208,0.64563096,0.07657005,-0.7403073,0.17100541,0.98082376,0.003101621,0.00893199,-0.19466755,1
15463733,0.0013002125,0.0014312696,0.03953787,0.6458589,0.07643665,-0.7401053,0.17107873,0.98082376,0.003101621,0.00893199,-0.19466755,1
15496602,0.0021243766,-0.0024631675,0.039604574,0.6460778,0.07629597,-0.73991007,0.17115928,0.98082376,0.003101621,0.00893199,-0.19466755,1
15528525,0.0033237557,0.00497468,0.039577745,0.6463009,0.07618094,-0.73971164,0.17122604,0.98082376,0.003101621,0.00893199,-0.19466755,1
15560623,0.004097007,0.0011098869,0.04150229,0.6465025,0.076057084,-0.73952544,0.17132415,0.98082376,0.003101621,0.00893199,-0.19466755,1
15589314,0.002341175,0.007081287,0.038389236,0.646704,0.07596376,-0.73934364,0.17138992,0.98082376,0.003101621,0.00893199,-0.19466755,1
15621332,0.0009840834,0.001915941,0.03807107,0.64691865,0.07587122,-0.73915976,0.17141409,0.98082376,0.003101621,0.00893199,-0.19466755,1
15653315,0.0007216637,-0.00028336607,0.038431656,0.64713866,0.07576404,-0.73897696,0.17141898,0.98082376,0.003101621,0.00893199,-0.19466755,1
15685314,0.0014074775,-0.0065340707,0.038139638,0.64733434,0.07566793,-0.7388139,0.17142588,0.98082376,0.003101621,0.00893199,-0.19466755,1
15718175,0.0034960455,0.0043573193,0.039032854,0.6475548,0.075585015,-0.7386224,0.1714547,0.98082376,0.003101621,0.00893199,-0.19466755,1
15750146,0.0021231403,0.004583558,0.036746077,0.6477772,0.07551993,-0.73843676,0.17144291,0.98082376,0.003101621,0.00893199,-0.19466755,1
15778138,0.0033176523,0.0055346787,0.03773635,0.64797276,0.075461105,-0.7382762,0.17142142,0.98082376,0.003101621,0.00893199,-0.19466755,1
15810127,0.0027513383,0.0029749833,0.036791787,0.6481768,0.07538716,-0.7381153,0.171375,0.98082376,0.003101621,0.00893199,-0.19466755,1
15842918,0.002053617,-0.002100367,0.035581384,0.6484135,0.07531421,-0.7379181,0.17136133,0.98082376,0.003101621,0.00893199,-0.19466755,1
15874937,0.0025305564,0.00909524,0.037272345,0.64863235,0.07524967,-0.737747,0.17129786,0.98082376,0.003101621,0.00893199,-0.19466755,1
15906914,0.0041860687,0.0117003545,0.037720006,0.6488549,0.075172946,-0.7375695,0.17125331,0.98082376,0.003101621,0.00893199,-0.19466755,1
15938987,0.002236241,-0.0027661845,0.036203373,0.6490671,0.07511602,-0.7374012,0.17119887,0.98082376,0.003101621,0.00893199,-0.19466755,1
15967739,0.003243371,0.0054570623,0.036230702,0.64927477,0.07504451,-0.73723805,0.17114538,0.98082376,0.003101621,0.00893199,-0.19466755,1
15999714,0.0019476213,0.005524894,0.03589748,0.6494966,0.07499823,-0.7370679,0.17105676,0.98082376,0.003101621,0.00893199,-0.19466755,1
16031758,0.0042503704,0.0012847483,0.03486891,0.64971566,0.07494249,-0.73690075,0.17096944,0.98082376,0.003101621,0.00893199,-0.19466755,1
16063714,0.0029211245,0.008232551,0.035275355,0.6499301,0.074894555,-0.73673695,0.17088114,0.98082376,0.003101621,0.00893199,-0.19466755,1
16096520,0.002423828,0.003963936,0.035333,0.6501241,0.07486094,-0.73659515,0.17076962,0.98082376,0.003101621,0.00893199,-0.19466755,1
16128542,0.0028806448,0.0023092087,0.035505325,0.65033466,0.07481468,-0.7364405,0.17065506,0.98082376,0.003101621,0.00893199,-0.19466755,1
16156632,0.0021620686,0.003393529,0.035608865,0.6505046,0.074767835,-0.73632175,0.17054018,0.98082376,0.003101621,0.00893199,-0.19466755,1
16188534,0.0032928684,-0.0020049661,0.03302886,0.6506983,0.07472233,-0.7361889,0.17039463,0.98082376,0.003101621,0.00893199,-0.19466755,1
16221314,0.0022255825,0.0015576631,0.033895746,0.6508917,0.07468628,-0.7360561,0.17024492,0.98082376,0.003101621,0.00893199,-0.19466755,1
16253343,0.0014122422,0.007913088,0.033955805,0.6510749,0.074644536,-0.73594177,0.17005737,0.98082376,0.003101621,0.00893199,-0.19466755,1
16285356,0.0025044992,0.0057983026,0.033908796,0.6512537,0.074593574,-0.7358348,0.16985771,0.98082376,0.003101621,0.00893199,-0.19466755,1
16317339,0.0028160596,0.0029505473,0.03273198,0.6514411,0.07455704,-0.7357211,0.16964754,0.98082376,0.003101621,0.00893199,-0.19466755,1
16346138,0.0022183675,0.0068591274,0.03223765,0.651624,0.07452512,-0.7356094,0.16944331,0.98082376,0.003101621,0.00893199,-0.19466755,1
16378304,0.0029139598,-0.00069059245,0.031224327,0.65182334,0.074491784,-0.73549163,0.1692023,0.98082376,0.003101621,0.00893199,-0.19466755,1
16410121,0.0033369532,0.0061252993,0.032679915,0.6520278,0.07445627,-0.7353684,0.16896605,0.98082376,0.003101621,0.00893199,-0.19466755,1
16442184,0.001602666,0.0066016614,0.032154925,0.65224147,0.07442209,-0.7352378,0.16872455,0.98082376,0.003101621,0.00893199,-0.19466755,1
16474930,0.0025809677,0.0010347981,0.03234982,0.6524412,0.07438792,-0.7351245,0.16846055,0.98082376,0.003101621,0.00893199,-0.19466755,1
16502966,0.00137426,0.0071236026,0.030642472,0.65261286,0.074362785,-0.7350283,0.16822633,0.98082376,0.003101621,0.00893199,-0.19466755,1
16534962,0.0040015765,0.0025467444,0.030499866,0.65279263,0.07434558,-0.7349317,0.1679585,0.98082376,0.003101621,0.00893199,-0.19466755,1
16566914,0.003135556,0.003265677,0.031883106,0.6529837,0.07434878,-0.73482406,0.16768503,0.98082376,0.003101621,0.00893199,-0.19466755,1
16599770,0.0040342063,0.0025470015,0.03149447,0.6531641,0.07434858,-0.7347216,0.16743103,0.98082376,0.003101621,0.00893199,-0.19466755,1
16631739,0.00505416,0.0069798008,0.030992653,0.65337056,0.074364595,-0.7345966,0.16716664,0.98082376,0.003101621,0.00893199,-0.19466755,1
16663740,0.003665284,0.0005461164,0.02916954,0.6535592,0.07439214,-0.7344886,0.16689138,0.98082376,0.003101621,0.00893199,-0.19466755,1
16692527,0.0025132135,0.0037098061,0.029124456,0.65372556,0.07440919,-0.73439145,0.1666597,0.98082376,0.003101621,0.00893199,-0.19466755,1
16724522,0.0031136447,-0.000489736,0.029740663,0.6539027,0.07447409,-0.7342917,0.16637506,0.98082376,0.003101621,0.00893199,-0.19466755,1
16756546,0.0038617428,0.0033343527,0.030168101,0.6540869,0.07452546,-0.7341756,0.16614018,0.98082376,0.003101621,0.00893199,-0.19466755,1
16788518,0.0032294472,0.0016149115,0.028978698,0.65424395,0.07458731,-0.7340874,0.16588321,0.98082376,0.003101621,0.00893199,-0.19466755,1
16821318,0.0064783758,0.004709039,0.031281378,0.654414,0.07465522,-0.7339761,0.16567479,0.98082376,0.003101621,0.00893199,-0.19466755,1
16849349,0.0036338847,0.008048616,0.031077217,0.6545439,0.07472968,-0.73389804,0.1654737,0.98082376,0.003101621,0.00893199,-0.19466755,1
16881344,0.0015774369,-0.0010048635,0.029414143,0.6546795,0.07479398,-0.7338204,0.16525264,0.98082376,0.003101621,0.00893199,-0.19466755,1
16913341,0.003980509,-0.0036570905,0.029115641,0.6548157,0.07486859,-0.7337469,0.16500519,0.98082376,0.003101621,0.00893199,-0.19466755,1
16946151,0.0037176576,0.0043297354,0.028204635,0.6549734,0.07494152,-0.73365355,0.16476105,0.98082376,0.003101621,0.00893199,-0.19466755,1
16978338,0.0031955307,0.005671421,0.028565908,0.655103,0.07502011,-0.7335851,0.16451435,0.98082376,0.003101621,0.00893199,-0.19466755,1
17010138,0.0023542284,-0.0014551394,0.026978157,0.65523946,0.075120404,-0.7335056,0.16427949,0.98082376,0.003101621,0.00893199,-0.19466755,1
17038122,0.006060453,0.0068756435,0.028175438,0.65537363,0.075207025,-0.73342127,0.16408122,0.98082376,0.003101621,0.00893199,-0.19466755,1
17070935,0.002778295,0.0061621927,0.028634947,0.65552074,0.07528815,-0.73332924,0.16386734,0.98082376,0.003101621,0.00893199,-0.19466755,1
17102918,0.0052763806,0.0032901634,0.02828338,0.6556539,0.07538677,-0.7332508,0.16364016,0.98082376,0.003101621,0.00893199,-0.19466755,1
17134924,0.0033848449,0.009734526,0.02803152,0.6557818,0.075504296,-0.7331798,0.16339163,0.98082376,0.003101621,0.00893199,-0.19466755,1
17166959,0.0035501616,0.002118688,0.02690938,0.65590775,0.075620085,-0.7331129,0.16313234,0.98082376,0.003101621,0.00893199,-0.19466755,1
17195716,0.0046399995,0.006657779,0.027160324,0.6560182,0.07572677,-0.7330563,0.16289295,0.98082376,0.003101621,0.00893199,-0.19466755,1
17227732,0.0043652,0.0031773224,0.026525013,0.6561319,0.07584965,-0.7330038,0.16261359,0.98082376,0.003101621,0.00893199,-0.19466755,1
17259718,0.0056162504,0.0005448777,0.024859026,0.6562501,0.07597358,-0.7329513,0.16231537,0.98082376,0.003101621,0.00893199,-0.19466755,1
17291745,0.004978407,0.0025012437,0.025280455,0.6563886,0.07609354,-0.7328885,0.16198231,0.98082376,0.003101621,0.00893199,-0.19466755,1
17324537,0.006540104,0.006253995,0.027191505,0.656536,0.07621317,-0.7328179,0.161648,0.98082376,0.003101621,0.00893199,-0.19466755,1
17356518,0.0056471005,0.0002970565,0.025687635,0.6566699,0.076357216,-0.7327557,0.1613173,0.98082376,0.003101621,0.00893199,-0.19466755,1
17388525,0.0066340202,0.0021613706,0.025942568,0.656798,0.076493874,-0.73270065,0.16098113,0.98082376,0.003101621,0.00893199,-0.19466755,1
17416633,0.003733131,-0.0025225691,0.024294604,0.65690035,0.076616965,-0.7326601,0.16068923,0.98082376,0.003101621,0.00893199,-0.19466755,1
17449339,0.004525574,0.0028139576,0.02640258,0.6570219,0.07676072,-0.7326114,0.1603454,0.98082376,0.003101621,0.00893199,-0.19466755,1
17481336,0.0044030477,0.008975096,0.024320014,0.65711874,0.07691612,-0.7325855,0.15999222,0.98082376,0.003101621,0.00893199,-0.19466755,1
17513315,0.0048255576,0.00066729076,0.024875004,0.65723336,0.07708172,-0.732543,0.15963583,0.98082376,0.003101621,0.00893199,-0.19466755,1
17545314,0.0037459903,0.0011120159,0.023082713,0.65734625,0.077234596,-0.7325085,0.15925504,0.98082376,0.003101621,0.00893199,-0.19466755,1
17574137,0.0019713566,0.0012347586,0.022559684,0.65747464,0.07736433,-0.7324514,0.1589244,0.98082376,0.003101621,0.00893199,-0.19466755,1
17606121,0.0039755306,-0.0010594949,0.020660581,0.6575881,0.07753733,-0.73241246,0.1585491,0.98082376,0.003101621,0.00893199,-0.19466755,1
17638354,0.0053607733,0.0020231307,0.023976367,0.6576939,0.07770201,-0.7323793,0.15818225,0.98082376,0.003101621,0.00893199,-0.19466755,1
17670146,0.0059015825,0.009861985,0.024231808,0.6577962,0.07786329,-0.732353,0.15779957,0.98082376,0.003101621,0.00893199,-0.19466755,1
17702914,0.0036819014,0.003927361,0.023755305,0.6579171,0.07803606,-0.7323042,0.15743597,0.98082376,0.003101621,0.00893199,-0.19466755,1
17734966,0.0068027237,0.005287962,0.023382004,0.6580043,0.078211375,-0.7322836,0.15707996,0.98082376,0.003101621,0.00893199,-0.19466755,1
17762925,0.006510738,0.0017893557,0.022756994,0.6580813,0.078371756,-0.73226655,0.15675658,0.98082376,0.003101621,0.00893199,-0.19466755,1
17794941,0.0046056393,0.0016481895,0.022760965,0.65818036,0.07853539,-0.73223954,0.15638472,0.98082376,0.003101621,0.00893199,-0.19466755,1
17827714,0.0050848546,0.006127123,0.024645045,0.65827954,0.07869619,-0.73221487,0.15600145,0.98082376,0.003101621,0.00893199,-0.19466755,1
17859728,0.004108982,-0.001996873,0.02219618,0.65834844,0.078881525,-0.7322146,0.15561761,0.98082376,0.003101621,0.00893199,-0.19466755,1
17891732,0.0043813833,-0.0014991742,0.020907804,0.65842277,0.07905617,-0.7322098,0.1552369,0.98082376,0.003101621,0.00893199,-0.19466755,1
17919724,0.0039635627,0.001263557,0.020928716,0.65850544,0.079209335,-0.7321899,0.15490136,0.98082376,0.003101621,0.00893199,-0.19466755,1
17952537,0.00422627,-0.0011301078,0.019724578,0.65858287,0.07938842,-0.7321828,0.15451393,0.98082376,0.003101621,0.00893199,-0.19466755,1
17984519,0.00488483,0.005680235,0.021898597,0.65868574,0.07955294,-0.73215306,0.1541311,0.98082376,0.003101621,0.00893199,-0.19466755,1
18016527,0.004464676,0.00796474,0.022263926,0.6587764,0.07972562,-0.73213315,0.15374847,0.98082376,0.003101621,0.00893199,-0.19466755,1
18049332,0.00584177,0.0053138435,0.01922822,0.65884316,0.07988699,-0.7321424,0.15333429,0.98082376,0.003101621,0.00893199,-0.19466755,1
18081420,0.004865241,-0.000337122,0.019790258,0.6589265,0.080073506,-0.7321325,0.15292543,0.98082376,0.003101621,0.00893199,-0.19466755,1
18109367,0.0038719755,-0.0009577535,0.020520302,0.65895706,0.08022085,-0.73216385,0.1525659,0.98082376,0.003101621,0.00893199,-0.19466755,1
18141318,0.0057872646,-0.004232236,0.02064715,0.65899557,0.080398075,-0.7321936,0.15216298,0.98082376,0.003101621,0.00893199,-0.19466755,1
18174150,0.0058993422,0.008030849,0.020660061,0.65906525,0.08056646,-0.73219,0.15178867,0.98082376,0.003101621,0.00893199,-0.19466755,1
18206202,0.0049457336,0.009051651,0.020822808,0.6591178,0.08073385,-0.73220575,0.15139529,0.98082376,0.003101621,0.00893199,-0.19466755,1
18238156,0.006410842,0.0024557337,0.021296121,0.65918255,0.08089956,-0.7322061,0.15102306,0.98082376,0.003101621,0.00893199,-0.19466755,1
18270124,0.0063669933,0.0017033853,0.019588659,0.6592442,0.08106602,-0.7322096,0.15064694,0.98082376,0.003101621,0.00893199,-0.19466755,1
18298977,0.0035159755,1.5836209e-05,0.01872088,0.6593096,0.08119988,-0.7322029,0.1503213,0.98082376,0.003101621,0.00893199,-0.19466755,1
18330914,0.007798112,0.008133139,0.021098554,0.65938294,0.08137124,-0.73219776,0.14993154,0.98082376,0.003101621,0.00893199,-0.19466755,1
18362938,0.003606503,-0.00026281178,0.018619813,0.65943897,0.08153995,-0.7322133,0.14951636,0.98082376,0.003101621,0.00893199,-0.19466755,1
18394944,0.004014575,-0.0018577334,0.018985827,0.6594815,0.081702285,-0.73224103,0.14910376,0.98082376,0.003101621,0.00893199,-0.19466755,1
18427742,0.0026263176,-0.0042895935,0.016221933,0.6595173,0.0818723,-0.732277,0.14867532,0.98082376,0.003101621,0.00893199,-0.19466755,1
18455720,0.004699176,0.0055988673,0.017418858,0.6595811,0.08202601,-0.73227817,0.14830136,0.98082376,0.003101621,0.00893199,-0.19466755,1
18487714,0.001803156,0.004147932,0.017464388,0.65962875,0.08219646,-0.7323007,0.14788353,0.98082376,0.003101621,0.00893199,-0.19466755,1
18519732,0.0033583771,0.0065830704,0.018483873,0.6596812,0.08235922,-0.73232025,0.14746144,0.98082376,0.003101621,0.00893199,-0.19466755,1
18552520,0.0073805917,0.010450009,0.018872242,0.6597844,0.0825113,-0.7322882,0.14707339,0.98082376,0.003101621,0.00893199,-0.19466755,1
18584521,0.0048700054,0.0012396816,0.017437957,0.6598197,0.082680605,-0.7323221,0.14664999,0.98082376,0.003101621,0.00893199,-0.19466755,1
18616534,0.0050072386,0.00090227835,0.016124861,0.659887,0.08283698,-0.7323247,0.14624584,0.98082376,0.003101621,0.00893199,-0.19466755,1
18648534,0.007133141,0.010422936,0.018940326,0.65991455,0.08299824,-0.73236436,0.14583066,0.98082376,0.003101621,0.00893199,-0.19466755,1
18677366,0.0051424294,0.0059931558,0.018006291,0.6599338,0.08313617,-0.7324022,0.14547437,0.98082376,0.003101621,0.00893199,-0.19466755,1
18709314,0.0043882173,0.006516086,0.017597098,0.6599986,0.083292656,-0.73240656,0.14506847,0.98082376,0.003101621,0.00893199,-0.19466755,1
18741352,0.0017004027,0.00052994676,0.017874956,0.66004056,0.08344396,-0.73243165,0.14466335,0.98082376,0.003101621,0.00893199,-0.19466755,1
18773364,0.00587932,0.0047711525,0.016914688,0.66011125,0.08359907,-0.73243,0.14425927,0.98082376,0.003101621,0.00893199,-0.19466755,1
18806339,0.0061368314,0.011641135,0.018113893,0.6601507,0.083758816,-0.73245794,0.14384337,0.98082376,0.003101621,0.00893199,-0.19466755,1
18834145,0.0026837508,0.00038248487,0.016057715,0.6601993,0.08390173,-0.732469,0.14348051,0.98082376,0.003101621,0.00893199,-0.19466755,1
18866121,0.0060753967,0.011234714,0.016393725,0.6602437,0.084065884,-0.73249245,0.14305982,0.98082376,0.003101621,0.00893199,-0.19466755,1
18898130,0.0023518866,0.005315181,0.016036,0.66028625,0.084214784,-0.7325179,0.14264478,0.98082376,0.003101621,0.00893199,-0.19466755,1
18930932,0.005033001,0.0001326669,0.015205813,0.6603258,0.084383026,-0.732542,0.14223824,0.98082376,0.003101621,0.00893199,-0.19466755,1
18962924,0.0053001307,0.006015118,0.015781743,0.6603756,0.08455217,-0.73255086,0.14186017,0.98082376,0.003101621,0.00893199,-0.19466755,1
18994950,0.00339725,0.00026158057,0.014902875,0.6604191,0.08470915,-0.73257035,0.14146276,0.98082376,0.003101621,0.00893199,-0.19466755,1
19022925,0.0069175097,0.009663513,0.01786602,0.6604821,0.08483145,-0.7325599,0.1411489,0.98082376,0.003101621,0.00893199,-0.19466755,1
19055714,0.0063933996,0.0028055254,0.016421318,0.66051644,0.08498841,-0.7325834,0.14077133,0.98082376,0.003101621,0.00893199,-0.19466755,1
19087732,0.005013665,0.00081738085,0.015529565,0.66050965,0.08515082,-0.73264664,0.14037587,0.98082376,0.003101621,0.00893199,-0.19466755,1
19119727,0.005035079,-0.0025564395,0.014603595,0.6605153,0.085303366,-0.73269755,0.13999003,0.98082376,0.003101621,0.00893199,-0.19466755,1
19151714,0.0062264213,0.0065113865,0.016710177,0.6605576,0.08544874,-0.73271734,0.13959754,0.98082376,0.003101621,0.00893199,-0.19466755,1
19180550,0.0047891405,-0.0043703318,0.014979363,0.6605539,0.08558428,-0.7327717,0.13924688,0.98082376,0.003101621,0.00893199,-0.19466755,1
19212547,0.006145715,0.008412797,0.015067784,0.6605846,0.085734725,-0.7327997,0.13886014,0.98082376,0.003101621,0.00893199,-0.19466755,1
19244560,0.0037511564,-0.00086562894,0.013465942,0.66060495,0.08588306,-0.73283476,0.13848655,0.98082376,0.003101621,0.00893199,-0.19466755,1
19277315,0.0031921137,-0.0003459137,0.013464376,0.6606439,0.08601914,-0.732855,0.13810866,0.98082376,0.003101621,0.00893199,-0.19466755,1
19309339,0.0043772557,0.0011861585,0.015380327,0.6606278,0.08617267,-0.7329296,0.13769346,0.98082376,0.003101621,0.00893199,-0.19466755,1
19341376,0.005444152,0.007988244,0.014155694,0.6606454,0.08631507,-0.732972,0.13729306,0.98082376,0.003101621,0.00893199,-0.19466755,1
19369314,0.0076087057,0.009513281,0.015787717,0.6606614,0.086447224,-0.7330062,0.13695057,0.98082376,0.003101621,0.00893199,-0.19466755,1
19401332,0.004309768,0.007602621,0.014726813,0.66066426,0.086590774,-0.7330614,0.13654974,0.98082376,0.003101621,0.00893199,-0.19466755,1
19434124,0.004008676,0.0019884836,0.013740846,0.6606682,0.086736724,-0.73312044,0.13612022,0.98082376,0.003101621,0.00893199,-0.19466755,1
19466167,0.005030402,-0.0017937981,0.012986127,0.660666,0.0868708,-0.73318714,0.13568619,0.98082376,0.003101621,0.00893199,-0.19466755,1
19498148,0.0042978376,0.0075386837,0.012791954,0.66069937,0.08700478,-0.7332202,0.13525775,0.98082376,0.003101621,0.00893199,-0.19466755,1
19526951,0.0062078377,0.003975833,0.013443533,0.6607046,0.08712961,-0.73326886,0.13488767,0.98082376,0.003101621,0.00893199,-0.19466755,1
19558991,0.0039064037,0.0014840756,0.013661722,0.6607251,0.08728473,-0.7333065,0.13448174,0.98082376,0.003101621,0.00893199,-0.19466755,1
19590914,0.0022724606,0.00013447367,0.014151635,0.6607299,0.08742982,-0.7333561,0.13409314,0.98082376,0.003101621,0.00893199,-0.19466755,1
19622914,0.0042681987,-0.0020450074,0.013927711,0.6607525,0.08755336,-0.7333922,0.1337035,0.98082376,0.003101621,0.00893199,-0.19466755,1
19655732,0.005635716,0.0023019481,0.013988156,0.66076744,0.08768407,-0.73343176,0.133326,0.98082376,0.003101621,0.00893199,-0.19466755,1
19687714,0.0051477943,0.005527189,0.012096349,0.66079956,0.08781117,-0.7334586,0.13293473,0.98082376,0.003101621,0.00893199,-0.19466755,1
19715741,0.006340783,0.011886101,0.013637081,0.66080457,0.087924466,-0.73350334,0.1325881,0.98082376,0.003101621,0.00893199,-0.19466755,1
19747739,0.0045297816,0.001104176,0.012671739,0.66080236,0.08804287,-0.7335628,0.13219084,0.98082376,0.003101621,0.00893199,-0.19466755,1
19780543,0.0019475054,0.00014416687,0.009919785,0.6608426,0.08815513,-0.73358935,0.13176681,0.98082376,0.003101621,0.00893199,-0.19466755,1
19812563,0.0031696293,-0.0032060482,0.011181712,0.66082406,0.08830596,-0.7336645,0.13133994,0.98082376,0.003101621,0.00893199,-0.19466755,1
19844519,0.00635525,0.0067349523,0.0129258,0.66085005,0.08843486,-0.73369557,0.13094786,0.98082376,0.003101621,0.00893199,-0.19466755,1
19876544,0.0035198047,0.0005192645,0.011637406,0.6608324,0.08857869,-0.73376393,0.1305562,0.98082376,0.003101621,0.00893199,-0.19466755,1
19905315,0.0057871314,0.0045435783,0.012482287,0.66085106,0.08867723,-0.7337915,0.13023962,0.98082376,0.003101621,0.00893199,-0.19466755,1
19937410,0.003333842,0.00035847165,0.012314379,0.6608592,0.088803135,-0.7338357,0.12986243,0.98082376,0.003101621,0.00893199,-0.19466755,1
19969331,0.0071664094,0.0040075574,0.013935322,0.66084415,0.08892496,-0.73390156,0.12948339,0.98082376,0.003101621,0.00893199,-0.19466755,1
20001318,0.009126517,0.0139243845,0.014834898,0.6608735,0.08902889,-0.7339306,0.12909694,0.98082376,0.003101621,0.00893199,-0.19466755,1
20034122,0.0042971,0.0021903329,0.009835737,0.6608889,0.08909303,-0.73402613,0.12842931,0.98082376,0.003101621,0.00893199,-0.19466755,1
20062122,0.02444218,-0.00046570413,0.012932725,0.66088945,0.089175984,-0.73415524,0.12762801,0.98082376,0.003101621,0.00893199,-0.19466755,1
20094137,-0.0019299411,-0.002191607,0.005319072,0.6609789,0.0890923,-0.7343102,0.12632494,0.98082376,0.003101621,0.00893199,-0.19466755,1
20126138,0.0027366802,-0.0066434685,0.0077950545,0.6610061,0.089076355,-0.7344987,0.12509234,0.98082376,0.003101621,0.00893199,-0.19466755,1
20158983,0.0064228275,0.005748404,0.014290333,0.66105175,0.08906531,-0.734655,0.12393582,0.98082376,0.003101621,0.00893199,-0.19466755,1
20190914,-0.002638712,0.0072793774,0.008451844,0.6610644,0.08905044,-0.73484546,0.12274374,0.98082376,0.003101621,0.00893199,-0.19466755,1
20222932,-0.0008831988,-0.0004008822,0.007949997,0.6611264,0.0889742,-0.73504627,0.12125387,0.98082376,0.003101621,0.00893199,-0.19466755,1
20254925,0.005085905,0.0026183873,0.011000406,0.6611945,0.088859364,-0.73526585,0.1196248,0.98082376,0.003101621,0.00893199,-0.19466755,1
20283731,0.0033368883,-0.003756145,0.008768175,0.66121703,0.08875233,-0.73549616,0.11815512,0.98082376,0.003101621,0.00893199,-0.19466755,1
20315759,0.0055310265,0.0015575923,0.008892458,0.66125077,0.08861405,-0.7357601,0.11641359,0.98082376,0.003101621,0.00893199,-0.19466755,1
20347739,0.0028558867,0.005007522,0.00830389,0.6613199,0.088425845,-0.73601687,0.11452526,0.98082376,0.003101621,0.00893199,-0.19466755,1
20379756,0.016901845,-0.0013264082,-0.0032812413,0.661342,0.08827591,-0.7362856,0.112772144,0.98082376,0.003101621,0.00893199,-0.19466755,1
20412526,0.01432425,-0.004817376,0.011275282,0.6614205,0.088011965,-0.73653376,0.110882245,0.98082376,0.003101621,0.00893199,-0.19466755,1
20440542,-0.0018457719,0.0015941374,0.0041368734,0.661474,0.087851465,-0.736742,0.10929577,0.98082376,0.003101621,0.00893199,-0.19466755,1
20472527,0.014918353,-0.0008640904,0.01080895,0.6615174,0.08772258,-0.7369671,0.10760636,0.98082376,0.003101621,0.00893199,-0.19466755,1
20504520,0.008883985,-0.0017941575,0.0055599734,0.66156346,0.08758509,-0.7371972,0.105844125,0.98082376,0.003101621,0.00893199,-0.19466755,1
20537341,-0.0058340007,0.00015783124,0.005444126,0.6616252,0.08734682,-0.737459,0.103812106,0.98082376,0.003101621,0.00893199,-0.19466755,1
20569314,-0.0050386256,-0.0073759602,0.003915582,0.66167724,0.08705993,-0.73773247,0.10175784,0.98082376,0.003101621,0.00893199,-0.19466755,1
20601446,-0.0041346177,-0.0016366486,0.0052351654,0.6617284,0.08671459,-0.7380348,0.099503405,0.98082376,0.003101621,0.00893199,-0.19466755,1
20629314,-0.0027526105,-0.009065097,0.004566528,0.66174483,0.0863668,-0.73835325,0.09730966,0.98082376,0.003101621,0.00893199,-0.19466755,1
20662121,-0.00085596135,-0.0015595686,0.0025636405,0.6618185,0.085963264,-0.7386853,0.094608255,0.98082376,0.003101621,0.00893199,-0.19466755,1
20694138,0.005216889,0.0035843644,0.0050321333,0.66183746,0.08551504,-0.73909706,0.09161871,0.98082376,0.003101621,0.00893199,-0.19466755,1
20726160,0.00068326655,-0.005637018,0.0047439244,0.66187197,0.0849747,-0.7395197,0.088405,0.98082376,0.003101621,0.00893199,-0.19466755,1
20758130,-0.002736516,-0.005549269,0.002330618,0.6619033,0.08435321,-0.73997617,0.08487598,0.98082376,0.003101621,0.00893199,-0.19466755,1
20786957,-0.005854424,-0.0030323062,0.00038107857,0.66194683,0.08373893,-0.7403803,0.081555285,0.98082376,0.003101621,0.00893199,-0.19466755,1
20818999,-0.006325518,-0.003310958,-0.00033481233,0.66199386,0.08300541,-0.7408434,0.07762298,0.98082376,0.003101621,0.00893199,-0.19466755,1
20850933,-0.0060234657,-0.00041123666,0.00069673173,0.6620182,0.08222697,-0.7413234,0.073555045,0.98082376,0.003101621,0.00893199,-0.19466755,1
20882940,-0.0034110625,-0.006580487,-0.0014875885,0.6620306,0.081464104,-0.7417831,0.06954913,0.98082376,0.003101621,0.00893199,-0.19466755,1
20915744,-0.0009522091,-0.005356809,4.656613e-05,0.6620302,0.08070385,-0.7422252,0.065609924,0.98082376,0.003101621,0.00893199,-0.19466755,1
20947734,-0.0015328361,-0.0030111242,0.000985397,0.6620246,0.07992202,-0.7426472,0.061733853,0.98082376,0.003101621,0.00893199,-0.19466755,1
20975727,-0.0032048842,-0.0062338654,-0.00051536225,0.66199774,0.07921937,-0.7430219,0.05832434,0.98082376,0.003101621,0.00893199,-0.19466755,1
21007732,-0.0053273533,0.0033352599,-0.00020175241,0.66198426,0.078411,-0.74341035,0.054495748,0.98082376,0.003101621,0.00893199,-0.19466755,1
21040518,-0.005669535,0.0010241047,-0.0020459369,0.6619397,0.07759456,-0.7438036,0.050706666,0.98082376,0.003101621,0.00893199,-0.19466755,1
21072524,-0.005141274,-0.009158583,-0.0015686341,0.6618797,0.07680819,-0.7441795,0.047039684,0.98082376,0.003101621,0.00893199,-0.19466755,1
21104568,-0.008569235,-0.0048658308,0.0002522748,0.6618196,0.07600426,-0.7445306,0.043502703,0.98082376,0.003101621,0.00893199,-0.19466755,1
21132526,-0.005875568,-0.005423734,-0.0027629957,0.6617588,0.07532083,-0.7448245,0.04048016,0.98082376,0.003101621,0.00893199,-0.19466755,1
21165336,-0.0038802733,0.0012659561,0.00018224493,0.6616855,0.07452762,-0.7451433,0.037140414,0.98082376,0.003101621,0.00893199,-0.19466755,1
21197410,0.004617769,-0.003215583,-0.0002686642,0.6616053,0.07377205,-0.74544185,0.033949144,0.98082376,0.003101621,0.00893199,-0.19466755,1
21229322,0.026364418,-0.011537032,0.0015142001,0.6614359,0.0733805,-0.74574274,0.03139694,0.98082376,0.003101621,0.00893199,-0.19466755,1
21262138,-0.011326344,-0.005851079,-0.00010600686,0.66134214,0.07259385,-0.7460221,0.028422354,0.98082376,0.003101621,0.00893199,-0.19466755,1
21294121,-0.03142223,-0.007936003,-0.007323699,0.6612263,0.071731776,-0.746316,0.025432779,0.98082376,0.003101621,0.00893199,-0.19466755,1
21322163,-0.042516172,-0.0063561685,-0.008901732,0.661134,0.07082069,-0.74657315,0.022691416,0.98082376,0.003101621,0.00893199,-0.19466755,1
21354141,0.022267347,-0.00019337237,-0.008098284,0.6610538,0.07014692,-0.7467836,0.02003766,0.98082376,0.003101621,0.00893199,-0.19466755,1
21386940,0.010442693,-0.0034460593,-0.0054072086,0.6609411,0.069331385,-0.7470239,0.01747525,0.98082376,0.003101621,0.00893199,-0.19466755,1
21419003,0.011986207,-0.004568871,0.00043527037,0.66084915,0.068783596,-0.7472071,0.0151273515,0.98082376,0.003101621,0.00893199,-0.19466755,1
21450923,0.025802579,0.0032289736,-0.001453884,0.66073585,0.06830572,-0.74738955,0.01309167,0.98082376,0.003101621,0.00893199,-0.19466755,1
21482914,0.016764205,-0.004569985,-0.0052763578,0.6607344,0.06756905,-0.74749464,0.010782121,0.98082376,0.003101621,0.00893199,-0.19466755,1
21511727,0.0005166624,-0.003767103,-0.008242672,0.6606509,0.06706116,-0.7476367,0.009093327,0.98082376,0.003101621,0.00893199,-0.19466755,1
21543744,-0.037210587,0.0030381512,0.002170179,0.66058195,0.06624206,-0.7477943,0.006876381,0.98082376,0.003101621,0.00893199,-0.19466755,1
21575779,0.010531939,-0.0076341946,-0.0080218185,0.66051257,0.06554889,-0.7479325,0.004857486,0.98082376,0.003101621,0.00893199,-0.19466755,1
21607739,-0.017176649,-0.00067681447,-0.007881712,0.6604138,0.064959094,-0.74808055,0.0030788113,0.98082376,0.003101621,0.00893199,-0.19466755,1
21640518,-0.005949616,-0.00071824156,7.067621e-05,0.66034085,0.06433097,-0.7482044,0.0013001367,0.98082376,0.003101621,0.00893199,-0.19466755,1
21672568,-0.012406513,-0.0050687734,-0.006521687,0.6602329,0.063765645,-0.7483491,-0.0003639613,0.98082376,0.003101621,0.00893199,-0.19466755,1
21700523,-0.0103239305,0.012448298,-0.016939862,0.66022736,0.06339102,-0.748384,-0.0017251724,0.98082376,0.003101621,0.00893199,-0.19466755,1
21732549,0.0020042378,-0.00155578,-0.010427479,0.66025364,0.06285863,-0.74839926,-0.0035286138,0.98082376,0.003101621,0.00893199,-0.19466755,1
21765318,-0.014688163,-0.01834994,-0.003977446,0.66012996,0.062301185,-0.7485455,-0.0051590423,0.98082376,0.003101621,0.00893199,-0.19466755,1
21797410,-0.014757231,-0.012272853,0.01001196,0.6599051,0.061722826,-0.74878204,-0.0064089904,0.98082376,0.003101621,0.00893199,-0.19466755,1
21829332,-0.0023264263,0.007346913,0.0055491775,0.6599066,0.06088974,-0.7488325,-0.008101149,0.98082376,0.003101621,0.00893199,-0.19466755,1
21861314,-0.0065394044,-0.01888508,-0.0007080324,0.6597113,0.0604627,-0.7490251,-0.009312706,0.98082376,0.003101621,0.00893199,-0.19466755,1
21890176,0.15156448,-0.004042743,0.04264374,0.6595454,0.060152393,-0.7491929,-0.009575867,0.98082376,0.003101621,0.00893199,-0.19466755,1
21922147,0.02840055,-0.0126666175,0.0036217794,0.6593704,0.05981047,-0.74935985,-0.010643783,0.98082376,0.003101621,0.00893199,-0.19466755,1
21954138,-0.058536757,0.024852898,-0.059392966,0.65943503,0.05926589,-0.74931985,-0.012360041,0.98082376,0.003101621,0.00893199,-0.19466755,1
21986137,0.02428294,-0.004366828,-8.7019056e-05,0.6594467,0.05866629,-0.74932504,-0.014152417,0.98082376,0.003101621,0.00893199,-0.19466755,1
22018990,0.14108379,0.075707994,0.008224774,0.6594714,0.058664683,-0.7492966,-0.014512704,0.98082376,0.003101621,0.00893199,-0.19466755,1
22046942,0.02265225,-0.016648632,-0.009991875,0.6593266,0.058826797,-0.74941003,-0.014575122,0.98082376,0.003101621,0.00893199,-0.19466755,1
22078974,-0.079942405,-0.024732057,-0.021041114,0.6592994,0.057784025,-0.7494668,-0.016883187,0.98082376,0.003101621,0.00893199,-0.19466755,1
22110948,0.044158038,-0.0044769347,-0.0062590707,0.659107,0.057571266,-0.7496439,-0.01725104,0.98082376,0.003101621,0.00893199,-0.19466755,1
22143769,0.0035310443,-0.006003361,-0.0035524722,0.65898657,0.057275824,-0.74974537,-0.018390805,0.98082376,0.003101621,0.00893199,-0.19466755,1
22175714,0.010906221,-0.022922352,0.015486725,0.6587084,0.057072125,-0.74999684,-0.01873014,0.98082376,0.003101621,0.00893199,-0.19466755,1
22207714,-0.03917524,0.02636427,-0.00826207,0.6586809,0.05628115,-0.7500545,-0.019756516,0.98082376,0.003101621,0.00893199,-0.19466755,1
22235739,-0.019308811,0.017809214,-0.0047925077,0.6590386,0.055476546,-0.74976355,-0.02109914,0.98082376,0.003101621,0.00893199,-0.19466755,1
22268541,-0.016729927,-0.041730445,-0.01824978,0.65866816,0.055155557,-0.75009495,-0.021716692,0.98082376,0.003101621,0.00893199,-0.19466755,1
22300560,0.0286662,0.011830086,0.0029548928,0.65863544,0.05474586,-0.7501218,-0.022799743,0.98082376,0.003101621,0.00893199,-0.19466755,1
22332532,-0.08402857,7.195398e-05,-0.035685573,0.65869206,0.053965826,-0.7500752,-0.024486374,0.98082376,0.003101621,0.00893199,-0.19466755,1
22364525,-0.00030005584,-0.012430705,-0.0076646153,0.6586674,0.053385727,-0.75009525,-0.025778124,0.98082376,0.003101621,0.00893199,-0.19466755,1
22393420,0.04094862,-0.0080094095,0.0075063594,0.6584648,0.053153813,-0.75026906,-0.026369287,0.98082376,0.003101621,0.00893199,-0.19466755,1
22425315,0.026850624,-0.044469945,0.015525781,0.6581065,0.052943498,-0.7505914,-0.026559995,0.98082376,0.003101621,0.00893199,-0.19466755,1
22457345,-0.064269595,-0.006993344,-0.011661338,0.6576841,0.052610055,-0.7509693,-0.02699887,0.98082376,0.003101621,0.00893199,-0.19466755,1
22489339,-0.11330988,0.015493529,-0.038487338,0.65804493,0.051263608,-0.7506419,-0.029763093,0.98082376,0.003101621,0.00893199,-0.19466755,1
22522146,-0.051518247,-0.014537533,-0.0058639217,0.6579664,0.050345995,-0.7507149,-0.031189434,0.98082376,0.003101621,0.00893199,-0.19466755,1
22554140,-0.02240168,-0.0011507496,0.0105790235,0.65794045,0.04941026,-0.7507387,-0.032625247,0.98082376,0.003101621,0.00893199,-0.19466755,1
22582121,-0.021873686,0.003617525,-0.009003295,0.6579266,0.04895361,-0.7507534,-0.033248607,0.98082376,0.003101621,0.00893199,-0.19466755,1
22614938,0.010829539,0.00040304102,-0.004783852,0.65794206,0.048648153,-0.7507273,-0.033972364,0.98082376,0.003101621,0.00893199,-0.19466755,1
22646914,-0.03545951,0.0022500865,-0.015828246,0.6579406,0.048044227,-0.7507161,-0.035090294,0.98082376,0.003101621,0.00893199,-0.19466755,1
22678981,0.011877539,-0.009127306,-0.004813982,0.6578603,0.047695473,-0.7507713,-0.03588082,0.98082376,0.003101621,0.00893199,-0.19466755,1
22710932,-0.011517486,-0.00068846904,-0.010096975,0.6577669,0.047217354,-0.7508403,-0.036771886,0.98082376,0.003101621,0.00893199,-0.19466755,1
22738986,-0.017586062,-0.015738944,-0.0044439603,0.65762705,0.046816945,-0.7509539,-0.037459124,0.98082376,0.003101621,0.00893199,-0.19466755,1
22771749,-0.006510958,-0.0048542824,-0.0048745945,0.6574844,0.046330582,-0.75106764,-0.038275883,0.98082376,0.003101621,0.00893199,-0.19466755,1
22803714,-0.01081604,-0.0070569664,-0.0041284114,0.6573778,0.045893934,-0.7511562,-0.03889299,0.98082376,0.003101621,0.00893199,-0.19466755,1
22835721,-0.014663557,-0.00958422,-0.006009938,0.6572389,0.045352686,-0.7512661,-0.039743423,0.98082376,0.003101621,0.00893199,-0.19466755,1
22867732,-0.0054232497,-0.0132467365,-0.0066851657,0.6571027,0.044800077,-0.75138026,-0.040456068,0.98082376,0.003101621,0.00893199,-0.19466755,1
22900518,-0.019290863,-0.006562289,-0.00038164482,0.6569934,0.044259258,-0.75146884,-0.041175563,0.98082376,0.003101621,0.00893199,-0.19466755,1
22932523,-0.021541696,-0.00240287,-0.012337765,0.6569247,0.043817077,-0.75151795,-0.041842286,0.98082376,0.003101621,0.00893199,-0.19466755,1
22960552,-0.010857139,0.00036598742,-0.0064560175,0.6569046,0.043435283,-0.7515206,-0.042504825,0.98082376,0.003101621,0.00893199,-0.19466755,1
22992519,-0.018770251,-0.0060968716,-0.009742061,0.65683377,0.04299444,-0.7515635,-0.043280154,0.98082376,0.003101621,0.00893199,-0.19466755,1
23025356,-0.010945676,-0.003548298,-0.010503393,0.656771,0.04255996,-0.75159955,-0.044031627,0.98082376,0.003101621,0.00893199,-0.19466755,1
23057346,-0.016788967,-0.0023359098,-0.008759722,0.65668917,0.042129602,-0.7516509,-0.044783022,0.98082376,0.003101621,0.00893199,-0.19466755,1
23089339,-0.011059642,-0.009977013,-0.0070476793,0.6565899,0.04172258,-0.751719,-0.045470245,0.98082376,0.003101621,0.00893199,-0.19466755,1
23121348,-0.010893944,-0.0058460534,-0.006751571,0.6564936,0.041262995,-0.75178355,-0.04620773,0.98082376,0.003101621,0.00893199,-0.19466755,1
23150124,-0.005378089,-0.011670703,-0.007227944,0.65639216,0.040883824,-0.75185704,-0.04678743,0.98082376,0.003101621,0.00893199,-0.19466755,1
23182138,-0.0108582955,-0.007969661,-0.004572712,0.65628946,0.040445942,-0.75192916,-0.04744474,0.98082376,0.003101621,0.00893199,-0.19466755,1
23214121,-0.0063225785,-0.0033766143,-0.0045078546,0.65620464,0.040042896,-0.7519869,-0.04803967,0.98082376,0.003101621,0.00893199,-0.19466755,1
23246914,-0.012169611,-0.00666577,-0.005788222,0.656118,0.03961795,-0.7520445,-0.04866894,0.98082376,0.003101621,0.00893199,-0.19466755,1
23278998,-0.019996729,-0.006209545,-0.005694721,0.65603316,0.039183695,-0.7521,-0.049304314,0.98082376,0.003101621,0.00893199,-0.19466755,1
23306950,-0.009426676,-0.0064876173,-0.0043346696,0.65596884,0.038798157,-0.7521412,-0.049833156,0.98082376,0.003101621,0.00893199,-0.19466755,1
23339001,-0.020574648,-0.006597329,-0.0068793185,0.6559007,0.03836947,-0.7521845,-0.0504036,0.98082376,0.003101621,0.00893199,-0.19466755,1
23370940,-0.0018179151,-0.0038876217,-0.005617751,0.6558199,0.03797148,-0.75223804,-0.050954826,0.98082376,0.003101621,0.00893199,-0.19466755,1
23403739,-0.015991945,-0.007352354,-0.023478746,0.6557458,0.037017033,-0.75226927,-0.052136872,0.98082376,0.003101621,0.00893199,-0.19466755,1
23435756,0.20020819,-0.024104068,0.057369623,0.6556138,0.03684504,-0.7523864,-0.05222844,0.98082376,0.003101621,0.00893199,-0.19466755,1
23467716,0.25704703,-0.032503735,0.09769252,0.6550126,0.038584623,-0.75313157,-0.04756581,0.98082376,0.003101621,0.00893199,-0.19466755,1
23495743,-0.044752955,-0.0017215516,0.005913865,0.6547853,0.038794577,-0.7533755,-0.046655662,0.98082376,0.003101621,0.00893199,-0.19466755,1
23528518,-0.06244572,0.0035930648,-0.018820154,0.6548921,0.03770509,-0.753224,-0.04845833,0.98082376,0.003101621,0.00893199,-0.19466755,1
23560531,-0.2929286,0.0077349376,-0.12744296,0.6550525,0.035815742,-0.7529086,-0.052461844,0.98082376,0.003101621,0.00893199,-0.19466755,1
23592534,0.01966785,-0.012566423,-0.010704236,0.65503323,0.034328904,-0.7527591,-0.055740286,0.98082376,0.003101621,0.00893199,-0.19466755,1
23624543,-0.03918945,-0.006941013,-0.02259662,0.655015,0.03417268,-0.7527664,-0.055950753,0.98082376,0.003101621,0.00893199,-0.19466755,1
23653341,0.033441994,-0.004812395,-0.0018903762,0.654939,0.034204364,-0.7528128,-0.05619614,0.98082376,0.003101621,0.00893199,-0.19466755,1
23685315,0.014124913,-0.006444564,-0.017782705,0.6548756,0.03373271,-0.7528272,-0.05701977,0.98082376,0.003101621,0.00893199,-0.19466755,1
23717327,-0.03816105,-0.017579518,-0.012953598,0.6545826,0.03330954,-0.7530282,-0.05797101,0.98082376,0.003101621,0.00893199,-0.19466755,1
23749332,-0.12985528,-0.012606792,-0.016744759,0.65457577,0.032602753,-0.7529762,-0.059114516,0.98082376,0.003101621,0.00893199,-0.19466755,1
23782130,-0.023802945,-0.012616187,-0.008395659,0.6542979,0.032219626,-0.7532044,-0.05949264,0.98082376,0.003101621,0.00893199,-0.19466755,1
23814122,0.010102031,-0.014173175,-0.010584831,0.65418005,0.03183267,-0.7532773,-0.060070712,0.98082376,0.003101621,0.00893199,-0.19466755,1
23842146,0.045426246,-0.0030986257,-0.004371185,0.65400827,0.031787492,-0.75342196,-0.06015143,0.98082376,0.003101621,0.00893199,-0.19466755,1
23874150,0.06738212,0.018834172,-0.0026265495,0.654192,0.0318093,-0.75330746,-0.059572857,0.98082376,0.003101621,0.00893199,-0.19466755,1
23906933,-0.055930074,0.013200317,-0.015131796,0.6542127,0.031265143,-0.75327253,-0.060073376,0.98082376,0.003101621,0.00893199,-0.19466755,1
23938974,-0.031426176,0.0048148427,0.004354641,0.6545136,0.030639667,-0.7529982,-0.06055636,0.98082376,0.003101621,0.00893199,-0.19466755,1
23970918,-0.029664412,0.006513564,-0.018603442,0.6545668,0.030052725,-0.75289285,-0.061574534,0.98082376,0.003101621,0.00893199,-0.19466755,1
23998977,0.019317321,-0.010520248,-0.009782637,0.65454656,0.029729107,-0.7528861,-0.06202799,0.98082376,0.003101621,0.00893199,-0.19466755,1
24031714,0.021290282,-0.0029156245,-0.020598419,0.6543898,0.029631732,-0.7529906,-0.062458143,0.98082376,0.003101621,0.00893199,-0.19466755,1
24063733,-0.03795483,-0.01705058,-0.014677234,0.6543241,0.029380059,-0.75302285,-0.06287571,0.98082376,0.003101621,0.00893199,-0.19466755,1
24095714,0.06416196,-0.048755765,-0.027884511,0.6539225,0.028734826,-0.7532708,-0.0643641,0.98082376,0.003101621,0.00893199,-0.19466755,1
24128516,0.16558217,-0.051312648,0.0010099262,0.6531115,0.02978343,-0.7540684,-0.06276248,0.98082376,0.003101621,0.00893199,-0.19466755,1
24160543,0.08115778,0.00917244,-0.005723225,0.65293974,0.029564785,-0.7541704,-0.063425735,0.98082376,0.003101621,0.00893199,-0.19466755,1
24192550,-0.1114524,-0.045373492,-0.05211485,0.6524818,0.029618518,-0.7545724,-0.06333106,0.98082376,0.003101621,0.00893199,-0.19466755,1
