timestamp,magnetometer_ga[0],magnetometer_ga[1],magnetometer_ga[2]
4642453,0.55583304,0.1806634,-0.16958398
4664666,0.33727586,0.18788339,-0.17764194
4686438,0.3513763,0.14765772,-0.17879309
4708439,0.33304572,0.17447484,-0.17533968
4730439,0.33586583,0.18788339,-0.17188627
4752439,0.33445576,0.18891482,-0.17649081
4774442,0.33727586,0.18994625,-0.28584886
4796471,0.51917183,0.18788339,-0.15346806
4818439,0.3386859,0.18685196,-0.17303741
4840439,0.34573612,0.13321774,-0.05101685
4862439,0.34855622,0.165192,-0.13159646
4884459,0.5487828,0.1847891,-0.17303741
4906438,0.6249253,0.1847891,-0.17649081
4928445,0.3880375,0.18685196,-0.2685818
4950438,0.52622205,0.1847891,-0.15807262
4972439,0.33586583,0.18788339,-0.17649081
4994439,0.3570165,0.15487772,-0.17994422
5016439,0.3386859,0.16931769,-0.16728172
5038439,0.34855622,0.18272625,-0.16958398
5060448,0.34573612,0.18375768,-0.17533968
5082442,0.34855622,0.18272625,-0.287
5104439,0.53609234,0.1847891,-0.16613057
5126439,0.34291604,0.18272625,-0.1603749
5148439,0.341506,0.13424917,-0.18224649
5169455,0.33727586,0.18169482,-0.16958398
5191507,0.35842654,0.1806634,-0.1638283
5213510,0.372527,0.17756912,-0.28815114
5235510,0.5135316,0.1806634,-0.16152602
5256693,0.33727586,0.18169482,-0.17188627
5278476,0.34291604,0.13115488,-0.16497944
5300473,0.57698375,0.17860055,-0.15231693
5322473,0.3626567,0.17860055,-0.16613057
5343473,0.34714618,0.17241198,-0.2835466
5366439,0.35842654,0.17241198,-0.287
5388439,0.3654768,0.16931769,-0.16613057
5411442,0.34996626,0.17241198,-0.16728172
5433448,0.36688682,0.12496632,-0.1603749
5455439,0.34996626,0.157972,-0.16152602
5477448,0.3598366,0.17138055,-0.16152602
5499470,0.34996626,0.17138055,-0.16267717
5520459,0.36124665,0.16931769,-0.28584886
5542438,0.3598366,0.16828628,-0.16267717
5565442,0.36124665,0.16725485,-0.16497944
5587438,0.3809873,0.11465205,-0.16843285
5609451,0.35842654,0.15075201,-0.17073514
5631776,0.3541964,0.16828628,-0.1546192
5653439,0.34573612,0.16828628,-0.1638283
5674439,0.36688682,0.16312914,-0.27433747
5696573,0.34291604,0.17138055,-0.15346806
5718439,0.3753471,0.13631202,-0.1638283
5740447,0.34714618,0.12909204,-0.1638283
5762450,0.3386859,0.16931769,-0.16152602
5785364,0.34009594,0.17138055,-0.15922375
5806490,0.341506,0.17034912,-0.27433747
5827461,0.5967244,0.16828628,-0.15577035
5850438,0.34996626,0.17034912,-0.1546192
5873387,0.34291604,0.17241198,-0.15116578
5894442,0.3513763,0.12290347,-0.15346806
5916439,0.34714618,0.17138055,-0.14656125
5939439,0.33445576,0.16931769,-0.14886352
5962165,0.35278636,0.16725485,-0.16152602
5984450,0.33727586,0.17034912,-0.15692149
6007439,0.33727586,0.17034912,-0.15577035
6029439,0.4543097,0.17034912,-0.14656125
6051439,0.46700013,0.17241198,-0.1454101
6073468,0.3386859,0.16931769,-0.15231693
6097476,0.38944757,0.13940631,-0.15807262
6119468,0.33022565,0.17034912,-0.15692149
6141473,0.32881558,0.16725485,-0.15577035
6163468,0.3781672,0.13734345,-0.15346806
6186448,0.3231754,0.16931769,-0.15001465
6208439,0.32740554,0.16931769,-0.27663976
6230442,0.3259955,0.16931769,-0.14886352
6252439,0.3626567,0.13837488,-0.15577035
6274450,0.341506,0.13218631,-0.15116578
6296461,0.34291604,0.16622342,-0.15346806
6318448,0.3231754,0.16931769,-0.15231693
6340459,0.5389125,0.17034912,-0.14656125
6361459,0.32740554,0.17034912,-0.26973292
6383438,0.4049581,0.15075201,-0.15001465
6406438,0.41059828,0.15694056,-0.15116578
6429439,0.32458547,0.121872045,-0.15346806
6451439,0.32881558,0.13218631,-0.14771238
6473439,0.33163568,0.16828628,-0.15346806
6495439,0.32740554,0.16828628,-0.1454101
6518439,0.31330505,0.17034912,-0.14771238
6540439,0.31894523,0.17034912,-0.26512837
6562439,0.40777817,0.16931769,-0.16728172
6584471,0.33022565,0.16931769,-0.15577035
6605721,0.32881558,0.12084061,-0.15346806
6628439,0.32740554,0.13940631,-0.1454101
6649444,0.32458547,0.16725485,-0.14656125
6672439,0.33022565,0.16828628,-0.15116578
6694534,0.5755737,0.1620977,-0.14886352
6717451,0.33445576,0.16622342,-0.24325678
6739452,0.5586531,0.16622342,-0.15116578
6761451,0.33022565,0.16828628,-0.15231693
6783445,0.3259955,0.1425006,-0.14656125
6805451,0.3231754,0.15075201,-0.15346806
6827471,0.35842654,0.16003485,-0.16267717
6849454,0.34009594,0.16106628,-0.15346806
6870439,0.4359791,0.16416056,-0.16728172
6891439,0.341506,0.11465205,-0.14771238
6913459,0.33445576,0.11568347,-0.15001465
6935449,0.31894523,0.16828628,-0.15231693
6957439,0.3203553,0.16312914,-0.1603749
6979442,0.3654768,0.16003485,-0.28239545
7001455,0.33163568,0.16003485,-0.27318633
7023439,0.33586583,0.16106628,-0.14771238
7044658,0.57134354,0.1239349,-0.1603749
7066439,0.46135992,0.15694056,-0.16152602
7089451,0.34009594,0.15590914,-0.12238736
7111450,0.33586583,0.15694056,-0.070586175
7133452,0.34009594,0.15900342,-0.2409545
7155439,0.402138,0.15900342,-0.20642038
7177683,0.341506,0.15900342,-0.17073514
7199439,0.3386859,0.11568347,-0.1603749
7221459,0.33163568,0.12909204,-0.16152602
7243438,0.33727586,0.15900342,-0.15807262
7265439,0.32740554,0.15900342,-0.1638283
7287442,0.32740554,0.16416056,-0.27779087
7309439,0.3203553,0.16106628,-0.27894202
7331439,0.33163568,0.15900342,-0.1638283
7353439,0.3626567,0.121872045,-0.16843285
7375439,0.33163568,0.13631202,-0.16497944
7397439,0.3259955,0.165192,-0.16152602
7419448,0.31894523,0.16416056,-0.16267717
7441449,0.3231754,0.16312914,-0.28239545
7463439,0.4148284,0.16725485,-0.17764194
7485439,0.32458547,0.16416056,-0.16958398
7507458,0.32740554,0.11877776,-0.17649081
7529438,0.311895,0.1167149,-0.16613057
7551438,0.30907494,0.16828628,-0.16267717
7573439,0.29779458,0.165192,-0.1638283
7595442,0.3175352,0.1620977,-0.28584886
7617439,0.31330505,0.165192,-0.23980336
7639439,0.3231754,0.16312914,-0.17649081
7661439,0.33022565,0.12702918,-0.17879309
7683450,0.29920462,0.14146917,-0.16958398
7705578,0.2921544,0.17138055,-0.15922375
7727458,0.30625483,0.16725485,-0.17764194
7749722,0.31471512,0.13218631,-0.17533968
7771475,0.38662747,0.16725485,-0.16843285
7793481,0.29356444,0.16725485,-0.16728172
7815438,0.29920462,0.12290347,-0.16613057
7837439,0.29920462,0.13424917,-0.17303741
7859438,0.2963845,0.16725485,-0.17303741
7881439,0.3175352,0.16416056,-0.18224649
7903445,0.29356444,0.17138055,-0.28815114
7925439,0.29356444,0.16725485,-0.28584886
7947439,0.280874,0.17138055,-0.17303741
7969439,0.30907494,0.13218631,-0.17879309
7991439,0.29920462,0.14868915,-0.16958398
8013450,0.29074433,0.16828628,-0.17188627
8035439,0.31330505,0.16312914,-0.17533968
8057443,0.32458547,0.16106628,-0.30081365
8078442,0.32458547,0.1620977,-0.18339764
8099444,0.33304572,0.11877776,-0.18339764
8121459,0.33163568,0.16106628,-0.18109536
8143438,0.32458547,0.15900342,-0.18339764
8165438,0.32458547,0.16003485,-0.17649081
8187438,0.32881558,0.16312914,-0.2996625
8209450,0.31894523,0.16312914,-0.18224649
8231439,0.4246987,0.14972058,-0.17764194
8253442,0.36406675,0.12599775,-0.18224649
8275439,0.31894523,0.16003485,-0.17073514
8297439,0.3203553,0.15694056,-0.17764194
8319450,0.31612515,0.1620977,-0.23980336
8341454,0.33163568,0.15900342,-0.30081365
8363439,0.31612515,0.15900342,-0.17879309
8385693,0.32740554,0.15694056,-0.18224649
8407466,0.341506,0.11568347,-0.18800218
8429450,0.31894523,0.157972,-0.17879309
8451438,0.31048498,0.15900342,-0.17188627
8473439,0.31612515,0.15900342,-0.17994422
8495438,0.31612515,0.16106628,-0.27894202
8517439,0.3175352,0.16003485,-0.17764194
8539450,0.3809873,0.13424917,-0.17533968
8561442,0.35560644,0.12599775,-0.17188627
8583439,0.3231754,0.157972,-0.17764194
8605439,0.3203553,0.15487772,-0.17073514
8627439,0.3513763,0.1538463,-0.26397726
8649450,0.3203553,0.15487772,-0.28815114
8671439,0.32176533,0.15590914,-0.17188627
8693475,0.4881508,0.15694056,-0.16843285
8715442,0.3175352,0.10846348,-0.16728172
8737485,0.31894523,0.1538463,-0.17188627
8759438,0.31330505,0.15487772,-0.16958398
8781439,0.33586583,0.15178344,-0.17303741
8803439,0.3175352,0.15590914,-0.2893023
8825439,0.31330505,0.1538463,-0.16497944
8847439,0.39367768,0.13631202,-0.17188627
8869442,0.34291604,0.11465205,-0.17764194
8891450,0.32740554,0.15178344,-0.16728172
8913453,0.311895,0.15178344,-0.17073514
8935439,0.32176533,0.15075201,-0.23289655
8957676,0.34432608,0.11980918,-0.16843285
8979439,0.3231754,0.15178344,-0.16728172
9001497,0.48956084,0.15075201,-0.1638283
9023442,0.32740554,0.10949492,-0.16843285
9045442,0.31330505,0.15281487,-0.16267717
9067438,0.31612515,0.15075201,-0.17649081
9089438,0.33727586,0.14559487,-0.17994422
9111439,0.31330505,0.14765772,-0.27663976
9133453,0.31471512,0.14972058,-0.15922375
9155439,0.35842654,0.12290347,-0.16613057
9177442,0.34714618,0.113620624,-0.17188627
9199439,0.30343476,0.14868915,-0.16843285
9221439,0.3020247,0.14559487,-0.17188627
9243450,0.30343476,0.1466263,-0.25016358
9265439,0.3020247,0.1466263,-0.28239545
9286439,0.53327227,0.14456344,-0.16267717
9307450,0.31612515,0.14353201,-0.18109536
9329471,0.30061466,0.13734345,-0.17764194
9352445,0.29497448,0.14043774,-0.17073514
9374450,0.29356444,0.13837488,-0.17533968
9396654,0.28792423,0.13631202,-0.20872265
9419473,0.2893343,0.13837488,-0.29160455
9442470,0.280874,0.13837488,-0.28469774
9465452,0.5205819,0.13424917,-0.17073514
9487442,0.27241373,0.13528061,-0.17994422
9509439,0.2865142,0.09608636,-0.16728172
9530439,0.47123027,0.13321774,-0.16843285
9552439,0.4909709,0.13218631,-0.16843285
9574439,0.2921544,0.13321774,-0.26743066
9596478,0.27241373,0.103306346,-0.12929419
9618388,0.2752338,0.12909204,-0.17994422
9640450,0.2963845,0.099180646,-0.17533968
9662472,0.2569032,0.082677804,-0.17994422
9684462,0.2569032,0.12599775,-0.18339764
9707117,0.2526731,0.12599775,-0.18569992
9731107,0.36124665,0.12599775,-0.18454877
9753439,0.24280277,0.12290347,-0.18915333
9774439,0.5205819,0.1239349,-0.28815114
9797450,0.48956084,0.11980918,-0.22023404
9819950,0.23857261,0.0713321,-0.18224649
9841467,0.24562286,0.091960646,-0.04526116
9862467,0.23152238,0.09711778,-0.14886352
9885439,0.2258822,0.112589195,-0.19951355
9908710,0.2230621,0.113620624,-0.20181584
9930439,0.21460183,0.10949492,-0.19836241
9952440,0.21037169,0.10743205,-0.19721128
9974439,0.41623846,0.106400624,-0.20296697
9997503,0.2413927,0.08474065,-0.19951355
10019468,0.66581666,0.0713321,-0.2098738
10040857,0.49943116,0.103306346,-0.20296697
10061508,0.3231754,0.09711778,-0.20296697
10083473,0.2047315,0.10021207,-0.21102493
10104468,0.29779458,0.03420072,-0.04526116
10126539,0.18499085,0.01769788,0.022655942
10148496,0.19486119,0.04142071,-0.22368744
10172439,0.17653058,0.091960646,-0.21678062
10193625,0.17794062,0.07855209,-0.20296697
10215438,0.16807029,0.09505493,-0.21447834
10238632,0.1708904,0.0940235,-0.2939068
10261450,0.1708904,0.092992075,-0.2593727
10284439,0.17512053,0.091960646,-0.345708
10306487,0.16807029,0.09505493,-0.22023404
10328439,0.42187864,0.09092922,-0.22253631
10350645,0.18781096,0.08680351,-0.23404768
10372439,0.17794062,0.09608636,-0.21793176
10393450,0.1835808,0.0898978,-0.22714084
10414439,0.17935067,0.099180646,-0.2098738
10436467,0.3809873,0.099180646,-0.3238364
10458442,0.43315902,0.09711778,-0.20872265
10480467,0.1920411,0.09814921,-0.21908289
10502438,0.19486119,0.04554642,-0.2133272
10524439,0.19768128,0.081646375,-0.22023404
10546439,0.18640089,0.10021207,-0.2133272
10568690,0.18640089,0.104337774,-0.21447834
10590439,0.40636814,0.102274925,-0.27433747
10612826,0.19345114,0.06411211,-0.22253631
10634439,0.19768128,0.10743205,-0.20526925
10655439,0.20332146,0.091960646,-0.22023404
10678473,0.20050137,0.09505493,-0.22598971
10700841,0.44443938,0.106400624,-0.21562949
10722501,0.20050137,0.10949492,-0.22714084
10744481,0.39790785,0.10743205,-0.3272898
10766484,0.4387992,0.111557774,-0.20642038
10788473,0.19909132,0.10846348,-0.2317454
10810473,0.2019114,0.07648924,-0.21562949
10832481,0.21037169,0.10743205,-0.22598971
10855439,0.19909132,0.11568347,-0.21908289
10877439,0.20896165,0.11465205,-0.25361702
10900439,0.21319178,0.113620624,-0.32268524
10923127,0.22024201,0.11568347,-0.21908289
10947133,0.21742192,0.0898978,-0.21217607
10968467,0.4091882,0.11465205,-0.32613868
10990442,0.31330505,0.082677804,-0.2006647
11012478,0.24985299,0.07339496,-0.19836241
11034438,0.23293243,0.12290347,-0.20296697
11057439,0.23857261,0.1239349,-0.20757152
11078439,0.24280277,0.12599775,-0.32038298
11101439,0.25408313,0.121872045,-0.31577843
11122439,0.25831327,0.12290347,-0.2006647
11144449,0.280874,0.08577209,-0.20757152
11166439,0.26959363,0.09711778,-0.20642038
11189439,0.26959363,0.111557774,-0.20757152
11213574,0.25831327,0.13012345,-0.19260673
11237056,0.25831327,0.13321774,-0.20526925
11258473,0.25831327,0.13631202,-0.19606015
11280836,0.51071155,0.13837488,-0.20296697
11302485,0.33586583,0.13837488,-0.20526925
11325823,0.55724305,0.1425006,-0.20526925
11348449,0.2836941,0.14559487,-0.11548054
11371439,0.5445527,0.15075201,-0.19606015
11393651,0.30907494,0.11980918,-0.062528215
11416448,0.34009594,0.111557774,-0.20296697
11438641,0.31894523,0.13631202,-0.017633865
11460478,0.32740554,0.15694056,-0.030296374
11481478,0.34009594,0.17550626,-0.18569992
11504449,0.5290421,0.13837488,-0.3238364
11525439,0.6700468,0.1538463,-0.20411812
11548449,0.39508778,0.1847891,-0.20181584
11570449,0.3908576,0.121872045,0.005388882
11593439,0.41200832,0.15590914,-0.194909
11615440,0.41905853,0.20129195,-0.22598971
11637439,0.4303389,0.20954336,-0.21217607
11659476,0.44866952,0.21160622,-0.20642038
11681439,0.46700013,0.21573192,-0.30196476
11704477,0.7165783,0.21779478,-0.21562949
11726439,0.73631895,0.2219205,-0.21678062
11747439,0.50366133,0.21366906,-0.22138517
11769466,0.5276321,0.21470049,-0.22598971
11792482,0.5431426,0.23326619,-0.22483857
11814438,0.5614732,0.23532905,-0.2317454
11836854,0.5755737,0.23842333,-0.23059428
11858442,0.7927208,0.23636048,-0.23289655
11879442,0.60659474,0.24048617,-0.23980336
11902473,0.6206952,0.24254903,-0.24786131
11924473,0.6418458,0.22501479,-0.2559193
11946473,0.6503061,0.24048617,-0.2628261
11968474,0.66158646,0.24461189,-0.26627952
11990473,0.68132716,0.24976905,-0.27663976
12012477,0.87732357,0.24564332,-0.27548862
12034484,0.95769626,0.24358046,-0.2812443
12056501,0.71516824,0.24770619,-0.28239545
12078473,0.71516824,0.23120335,-0.29160455
12100478,0.7320888,0.24358046,-0.2962091
12123119,0.9746168,0.24770619,-0.29851136
12144484,0.7490094,0.24873762,-0.3146273
12166486,0.9858972,0.24667473,-0.3088716
12187478,0.7616998,0.24564332,-0.32959208
12210439,0.7743902,0.24564332,-0.33189434
12232439,0.7772103,0.23223478,-0.33189434
12254450,0.7913107,0.2415176,-0.34801027
12276439,0.78849065,0.24564332,-0.35376596
12298439,0.79695094,0.24564332,-0.36067277
12320445,0.98307705,0.24254903,-0.35376596
12342439,1.0521693,0.24461189,-0.37218416
12364500,0.81669164,0.24048617,-0.38139325
12385478,0.8195117,0.2188262,-0.3859978
12408495,0.8265619,0.23945475,-0.396358
12430440,0.83361214,0.2373919,-0.40671828
12453442,1.0676799,0.23842333,-0.40211374
12475451,0.8364323,0.23532905,-0.396358
12497450,1.07473,0.23429762,-0.40786943
12519439,0.87027335,0.21057479,-0.40556714
12542322,0.8434825,0.23326619,-0.4136251
12564439,0.860403,0.23223478,-0.4262876
12587450,0.858993,0.22914049,-0.43089217
12609654,0.87168336,0.22810906,-0.44700807
12631438,0.86322314,0.23017192,-0.5483082
12654262,0.8660432,0.22398336,-0.4447058
12675438,0.8674532,0.22707763,-0.43895012
12697439,0.90552455,0.20129195,-0.45276377
12719442,0.8787336,0.2260462,-0.45276377
12741439,0.8829638,0.22398336,-0.4596706
12763439,0.8815537,0.22295193,-0.4654263
12785447,0.88014364,0.22088908,-0.55176157
12807889,0.9717967,0.22295193,-0.47578654
12829451,0.88014364,0.2219205,-0.48154223
12851439,0.8871939,0.18582053,-0.48154223
12873442,0.8956542,0.22088908,-0.49190244
12895468,1.0563995,0.2219205,-0.47233313
12917439,0.88437384,0.22295193,-0.49535584
12939438,0.8956542,0.2188262,-0.5103206
12961438,0.8787336,0.2219205,-0.4999604
12984474,0.8815537,0.21985763,-0.5080184
13006442,0.88437384,0.21985763,-0.51147175
13028856,0.88437384,0.17034912,-0.5195297
13049574,0.8759135,0.2188262,-0.521832
13071455,0.888604,0.21263765,-0.5080184
13092829,0.8857839,0.21676335,-0.6173764
13113460,0.8857839,0.21263765,-0.5172275
13135449,1.0042278,0.18169482,-0.5149252
13159473,1.07473,0.17550626,-0.5264365
13181671,0.9027044,0.17447484,-0.5252854
13203496,0.9168049,0.20541766,-0.53334343
13225860,0.9083446,0.20232338,-0.52988994
13247470,0.90552455,0.2033548,-0.6507594
13269473,1.1452323,0.2033548,-0.6369457
13291468,0.91539484,0.20026052,-0.5264365
13313473,1.1607429,0.16312914,-0.5264365
13336439,1.0803702,0.15900342,-0.5321923
13358452,0.9182149,0.14972058,-0.5264365
13381470,0.9168049,0.15075201,-0.51837856
13403459,1.1254917,0.20129195,-0.58859795
13425439,0.9168049,0.20232338,-0.50916946
13447442,0.94782585,0.20438623,-0.6173764
13469467,1.0958807,0.2033548,-0.57478434
13490467,0.921035,0.20438623,-0.5011115
13513439,0.94359577,0.15281487,-0.5057161
13535438,0.919625,0.19097768,-0.49420473
13557439,0.9168049,0.20644909,-0.4907513
13579439,0.9139848,0.20541766,-0.48960018
13602451,0.919625,0.2074805,-0.4907513
13624453,1.0281986,0.2033548,-0.59090024
13645439,0.919625,0.2074805,-0.4803911
13667439,0.93090534,0.15590914,-0.4907513
13689439,0.921035,0.16003485,-0.48614678
13711439,0.921035,0.2074805,-0.48154223
13733439,0.9168049,0.20851193,-0.48154223
13755445,0.9182149,0.20541766,-0.5978071
13777648,1.0521693,0.19407195,-0.48614678
13798467,0.919625,0.2074805,-0.4872979
13820439,0.92808527,0.17756912,-0.48499563
13842438,0.9266752,0.20026052,-0.48960018
13865607,0.9266752,0.20541766,-0.5598195
13887449,0.9238551,0.2074805,-0.48499563
13910627,0.92526513,0.20851193,-0.48269334
13932451,0.9717967,0.2074805,-0.5897491
13954467,1.1579229,0.20129195,-0.48499563
13976453,0.92244506,0.2074805,-0.4803911
13998633,0.921035,0.20541766,-0.4907513
14020474,0.9266752,0.18582053,-0.4780888
14042444,0.92808527,0.20644909,-0.4838445
14064479,0.92244506,0.20644909,-0.48499563
14086452,0.9844871,0.20644909,-0.61277187
14108451,1.1424123,0.20851193,-0.47693768
14130438,0.919625,0.20851193,-0.4780888
14152480,0.92244506,0.17963198,-0.4780888
14174439,0.9238551,0.19510338,-0.48269334
14196448,0.921035,0.20954336,-0.4780888
14218450,0.9337254,0.2074805,-0.48499563
14240466,1.0662698,0.20851193,-0.5713309
14262448,1.164973,0.20438623,-0.47693768
14284823,0.921035,0.20851193,-0.4872979
14306449,0.9266752,0.14972058,-0.48499563
14329112,1.1677932,0.20644909,-0.48844904
14351439,0.93090534,0.20232338,-0.48154223
14374489,0.919625,0.20644909,-0.48154223
14396486,0.92526513,0.20851193,-0.51147175
14418485,0.92526513,0.20644909,-0.47693768
14440485,1.1607429,0.20644909,-0.4688797
14462479,1.1156214,0.17963198,-0.47233313
14483481,0.92808527,0.19407195,-0.4872979
14504479,0.92244506,0.20954336,-0.48844904
14525476,0.9393656,0.20851193,-0.59665596
14548439,1.0549895,0.20438623,-0.5713309
14570662,0.94077563,0.16106628,-0.48499563
14593472,1.1607429,0.2074805,-0.4700308
14615449,0.9182149,0.21057479,-0.48499563
14637443,0.92526513,0.18685196,-0.48269334
14659951,0.9294953,0.20438623,-0.48960018
14681477,0.9238551,0.20851193,-0.48154223
14702477,0.9238551,0.20851193,-0.4907513
14725452,1.1184415,0.2074805,-0.48269334
14747449,1.0916506,0.17756912,-0.48499563
14769439,0.92526513,0.20954336,-0.48154223
14791442,0.9238551,0.19716623,-0.48614678
14814449,0.921035,0.19716623,-0.4803911
14836710,0.9492359,0.2033548,-0.48960018
14859451,0.9266752,0.20644909,-0.59090024
14882442,0.93231535,0.20644909,-0.5782377
14904847,0.9562862,0.16622342,-0.48844904
14925504,0.92526513,0.20438623,-0.4803911
14947459,0.95769626,0.15694056,-0.48154223
14968870,0.92526513,0.20644909,-0.48614678
14990438,0.92808527,0.20644909,-0.4907513
15012439,0.9238551,0.2074805,-0.5264365
15034438,0.9266752,0.20851193,-0.4838445
15056438,1.1565129,0.20851193,-0.47118196
15078458,1.0831903,0.17963198,-0.4746354
15100439,0.92244506,0.20644909,-0.4838445
15122439,0.9266752,0.19716623,-0.47923994
15144439,0.92526513,0.20438623,-0.48499563
15167439,0.92808527,0.17756912,-0.49190244
15189450,0.92808527,0.20851193,-0.62198097
15211442,0.9238551,0.20954336,-0.4780888
15233439,1.1677932,0.20851193,-0.48154223
15254439,0.92808527,0.20851193,-0.4803911
15276467,0.92808527,0.19922909,-0.4872979
15298438,0.9294953,0.20438623,-0.48269334
15320479,0.9182149,0.2074805,-0.5344945
15342450,0.9266752,0.2074805,-0.4872979
15364450,1.1579229,0.20851193,-0.4746354
15386445,1.040889,0.1734434,-0.4838445
15408671,0.9238551,0.20954336,-0.48499563
15430450,0.93795556,0.1920091,-0.4907513
15452451,0.9238551,0.20644909,-0.4907513
15473464,0.92244506,0.20644909,-0.56097066
15495439,1.1551027,0.2074805,-0.47233313
15516813,1.1677932,0.20851193,-0.48154223
15537527,0.9266752,0.17447484,-0.48614678
15559439,0.93090534,0.2033548,-0.48154223
15580861,0.91257477,0.2074805,-0.48499563
15602458,0.9689766,0.20954336,-0.59665596
15624442,0.921035,0.2074805,-0.46772856
15647484,0.9238551,0.20438623,-0.48844904
15669704,0.921035,0.19922909,-0.4930536
15691468,0.9182149,0.19407195,-0.47348428
15713483,0.92526513,0.15590914,-0.48844904
15735468,0.92526513,0.20644909,-0.4838445
15758456,0.92244506,0.2074805,-0.4803911
15780439,1.0465292,0.20851193,-0.58859795
15803439,1.164973,0.20954336,-0.47233313
15825439,1.1988142,0.2074805,-0.48499563
15847439,0.92808527,0.20541766,-0.48614678
15869443,0.92526513,0.19097768,-0.49190244
15891478,1.1438223,0.20644909,-0.4780888
15912467,0.9238551,0.2074805,-0.48960018
15934438,1.0521693,0.2074805,-0.59090024
15957438,1.1424123,0.20644909,-0.47923994
15979450,1.0563995,0.17653769,-0.47923994
16001439,0.9393656,0.20541766,-0.4907513
16022439,0.92808527,0.19819766,-0.48499563
16045439,0.9393656,0.20026052,-0.4930536
16066439,0.9238551,0.2074805,-0.48499563
16088818,0.93090534,0.15694056,-0.4907513
16110439,1.1917639,0.20851193,-0.4803911
16133439,1.0507593,0.17756912,-0.47578654
16155439,0.9182149,0.2074805,-0.48269334
16177470,0.9393656,0.20644909,-0.49535584
16199438,0.92526513,0.20438623,-0.48499563
16221820,0.93090534,0.1961348,-0.4872979
16244439,0.92526513,0.2074805,-0.54715705
16266439,0.921035,0.2074805,-0.48614678
16289662,0.92244506,0.2074805,-0.48269334
16311450,0.9999976,0.1734434,-0.47923994
16333439,0.9746168,0.165192,-0.49190244
16355439,0.92244506,0.20851193,-0.48269334
16377439,0.9294953,0.20438623,-0.48844904
16399439,0.9238551,0.20438623,-0.58629566
16421450,0.93090534,0.2074805,-0.61277187
16443470,0.93231535,0.20644909,-0.48269334
16465438,1.1692032,0.19407195,-0.48844904
16487438,0.9337254,0.17550626,-0.4930536
16509439,0.9266752,0.20438623,-0.49420473
16533477,0.92808527,0.17963198,-0.48844904
16554473,0.92244506,0.20851193,-0.4872979
16577439,0.92526513,0.21057479,-0.48844904
16599449,0.9182149,0.20644909,-0.5920514
16622453,0.92244506,0.20644909,-0.6012605
16644439,1.1057512,0.20541766,-0.52988994
16666439,0.919625,0.2074805,-0.49190244
16688706,0.9238551,0.15590914,-0.4872979
16710476,0.9294953,0.18272625,-0.49190244
16731467,1.0338387,0.21160622,-0.5851445
16754439,0.9294953,0.2074805,-0.4930536
16777438,0.9266752,0.20954336,-0.48269334
16799438,1.1424123,0.20438623,-0.49765813
16821671,1.1988142,0.2074805,-0.4780888
16844450,1.2044543,0.20541766,-0.49190244
16866467,0.94641584,0.20232338,-0.49880925
16888451,0.9238551,0.18685196,-0.49420473
16911476,0.9266752,0.20232338,-0.4872979
16933655,0.92526513,0.20954336,-0.5874468
16955468,0.9266752,0.2074805,-0.6070162
16977477,0.9238551,0.20851193,-0.48960018
16999496,1.1663831,0.2074805,-0.48269334
17021473,1.1579229,0.18788339,-0.4872979
17043468,0.92244506,0.20954336,-0.48499563
17065473,0.93795556,0.19716623,-0.4930536
17087471,0.92808527,0.20541766,-0.4907513
17109473,0.9238551,0.20954336,-0.6047139
17131479,1.1480525,0.2074805,-0.45851946
17153484,1.1607429,0.2074805,-0.4838445
17175477,0.99012727,0.16622342,-0.47693768
17197474,0.9450058,0.2033548,-0.49190244
17219500,0.9182149,0.20644909,-0.47923994
17241477,0.92526513,0.20541766,-0.4838445
17263468,0.9168049,0.20644909,-0.6012605
17285501,0.9266752,0.20644909,-0.48844904
17307468,1.1847137,0.19097768,-0.47693768
17328845,1.1847137,0.1847891,-0.4780888
17349593,0.9266752,0.18891482,-0.496507
17371473,0.921035,0.20541766,-0.48960018
17393520,0.9238551,0.20644909,-0.48614678
17415473,1.1254917,0.20851193,-0.49535584
17438451,1.1565129,0.20644909,-0.47578654
17460451,1.1677932,0.2074805,-0.4838445
17483442,0.9788469,0.17138055,-0.48960018
17505692,0.9337254,0.20541766,-0.4838445
17527452,0.92244506,0.20644909,-0.4654263
17549850,0.919625,0.19097768,-0.48614678
17571527,0.92526513,0.20644909,-0.6047139
17592475,0.93090534,0.20644909,-0.48499563
17614635,0.92244506,0.20644909,-0.5839934
17637451,1.133952,0.17653769,-0.48499563
17659451,0.9266752,0.20644909,-0.4872979
17681455,0.9238551,0.20129195,-0.48499563
17703444,0.92526513,0.20644909,-0.51837856
17725451,0.92244506,0.20851193,-0.5506104
17749451,0.919625,0.20644909,-0.60010934
17771451,0.950646,0.20541766,-0.6012605
17793451,0.921035,0.20644909,-0.4872979
17815444,0.9591063,0.1620977,-0.4838445
17837479,0.9393656,0.157972,-0.4872979
17858474,0.9294953,0.20644909,-0.48499563
17880474,1.101521,0.20644909,-0.52298313
17902450,0.92526513,0.20644909,-0.60010934
17924841,0.9266752,0.20644909,-0.47118196
17947441,0.9421857,0.20541766,-0.4930536
17969442,0.9421857,0.15900342,-0.4803911
17993028,0.9238551,0.20541766,-0.4872979
18014451,0.93231535,0.14765772,-0.48614678
18036876,0.9294953,0.2074805,-0.6116207
18058451,0.9266752,0.20851193,-0.47923994
18080452,0.92808527,0.20644909,-0.6012605
18102444,0.950646,0.2074805,-0.59090024
18124452,0.9294953,0.2074805,-0.4700308
18146479,0.9619264,0.165192,-0.48499563
18168450,0.9337254,0.1538463,-0.48960018
18190444,0.921035,0.20851193,-0.48269334
18212451,0.92808527,0.20541766,-0.49190244
18234621,1.1607429,0.20851193,-0.4700308
18256447,1.0465292,0.20644909,-0.58629566
18278458,0.9238551,0.20851193,-0.48499563
18300451,0.950646,0.16622342,-0.48499563
18322451,0.93090534,0.15487772,-0.48614678
18344451,0.92808527,0.2074805,-0.48499563
18366451,0.92808527,0.20438623,-0.48499563
18388462,0.9351355,0.20541766,-0.6081673
18410444,0.9647465,0.20644909,-0.5955048
18432482,0.92526513,0.2074805,-0.4930536
18454450,0.952056,0.16312914,-0.48960018
18476470,0.92526513,0.15178344,-0.4803911
18498450,0.92244506,0.20541766,-0.48269334
18520451,0.93090534,0.20438623,-0.4872979
18542451,0.92808527,0.20438623,-0.6012605
18563439,0.92808527,0.20644909,-0.48499563
18586485,0.9238551,0.20644909,-0.4838445
18608845,0.921035,0.20851193,-0.48614678
18630485,0.9294953,0.15590914,-0.48499563
18651474,0.9365455,0.20644909,-0.49765813
18673648,1.1071612,0.20644909,-0.5390991
18695474,0.9929474,0.2074805,-0.59895825
18717849,0.9266752,0.20644909,-0.48499563
18739516,0.9548762,0.16725485,-0.4838445
18761694,0.9294953,0.20026052,-0.47693768
18783475,0.92244506,0.20851193,-0.48499563
18805473,0.92526513,0.20541766,-0.48614678
18827484,0.9351355,0.20541766,-0.6047139
18849477,0.9294953,0.2074805,-0.5978071
18872445,1.0281986,0.2074805,-0.60586506
18895103,0.9266752,0.2074805,-0.48499563
18917451,0.9266752,0.20541766,-0.4872979
18939477,0.9294953,0.1538463,-0.48154223
18961458,0.9294953,0.17963198,-0.48614678
18983885,0.9238551,0.20644909,-0.48614678
19005472,0.92808527,0.20438623,-0.4872979
19026470,1.0620396,0.2074805,-0.58054
19049451,1.1240817,0.20644909,-0.49190244
19071451,0.9421857,0.20232338,-0.496507
19093451,0.93090534,0.157972,-0.48960018
19115451,0.92526513,0.20026052,-0.48269334
19138473,0.9294953,0.19716623,-0.4665774
19161500,0.92526513,0.2074805,-0.4838445
19183454,0.92526513,0.20644909,-0.52068084
19207439,0.9266752,0.20541766,-0.5782377
19228813,0.9238551,0.20644909,-0.6024116
19249530,1.162153,0.20541766,-0.4746354
19271445,0.93090534,0.20541766,-0.49190244
19293672,0.9238551,0.20438623,-0.4803911
19315449,0.9294953,0.20644909,-0.48614678
19338283,1.1748434,0.20438623,-0.4665774
19359438,0.919625,0.20644909,-0.4803911
19381665,1.0972908,0.17241198,-0.4780888
19403439,1.1551027,0.17860055,-0.48499563
19425442,0.9238551,0.2074805,-0.4838445
19449468,0.95769626,0.15900342,-0.48844904
19471473,0.9238551,0.20541766,-0.48960018
19493480,0.92244506,0.20438623,-0.48960018
19515473,0.93231535,0.2074805,-0.5943537
19537472,0.92526513,0.2074805,-0.6035628
19559515,0.919625,0.20954336,-0.4803911
19581477,1.1734333,0.18994625,-0.4907513
19603484,0.9266752,0.2074805,-0.52988994
19625468,0.9266752,0.20541766,-0.48614678
19647473,0.9238551,0.20438623,-0.48499563
19669468,0.92526513,0.20851193,-0.54945934
19692493,1.1593329,0.20644909,-0.47348428
19714450,0.9266752,0.2074805,-0.5978071
19736439,0.92244506,0.20851193,-0.4665774
19758439,1.0296086,0.17550626,-0.48269334
19781050,0.9238551,0.2033548,-0.4803911
19802439,0.9266752,0.20644909,-0.48269334
19824883,0.9294953,0.20232338,-0.48960018
19846467,0.919625,0.20644909,-0.6081673
19869438,0.93090534,0.2074805,-0.5978071
19891438,1.0846003,0.20644909,-0.53334343
19914438,1.1184415,0.20644909,-0.54025024
19936443,0.92808527,0.20644909,-0.46772856
19959439,0.93231535,0.20644909,-0.48499563
19981833,0.92808527,0.20541766,-0.48269334
20003439,0.9266752,0.20438623,-0.48844904
20025439,0.9238551,0.21057479,-0.5943537
20047472,0.92244506,0.20644909,-0.48844904
20069442,1.0648597,0.2074805,-0.5839934
20091439,1.163563,0.20851193,-0.48614678
20113467,0.92526513,0.20644909,-0.48960018
20135439,0.92244506,0.16003485,-0.47693768
20157448,0.9238551,0.1961348,-0.48614678
20181479,0.92244506,0.19716623,-0.48269334
20203485,0.9266752,0.20851193,-0.4872979
20226439,0.921035,0.2074805,-0.49535584
20248439,0.92526513,0.20438623,-0.6012605
20271450,0.94077563,0.2033548,-0.48614678
20293445,0.919625,0.20644909,-0.48960018
20315450,0.952056,0.16312914,-0.48154223
20337450,0.94077563,0.15900342,-0.4803911
20359478,0.92244506,0.20644909,-0.4838445
20380467,0.92808527,0.20644909,-0.48499563
20402438,0.9294953,0.20644909,-0.60586506
20425481,0.9238551,0.20438623,-0.59665596
20447442,0.92808527,0.20644909,-0.49190244
20469450,0.9393656,0.17034912,-0.49190244
20490445,0.9294953,0.20232338,-0.48960018
20511451,0.9266752,0.2074805,-0.48960018
20534439,0.92244506,0.2074805,-0.4907513
20555451,0.92526513,0.20644909,-0.47923994
20578478,0.93090534,0.2033548,-0.49190244
20600450,1.164973,0.20954336,-0.47923994
20622442,0.9788469,0.17138055,-0.4803911
20644439,0.92244506,0.20644909,-0.4872979
20667113,0.9182149,0.2074805,-0.4688797
20687479,0.92526513,0.20541766,-0.5057161
20710454,0.92244506,0.20644909,-0.60931844
20732439,0.9238551,0.20541766,-0.4780888
20755138,0.92244506,0.20438623,-0.48499563
20776451,0.9647465,0.16416056,-0.48269334
20797444,0.921035,0.19819766,-0.4803911
20819938,0.919625,0.20438623,-0.58859795
20841453,0.9294953,0.20438623,-0.57248205
20863451,0.92526513,0.20541766,-0.4872979
20885451,1.1663831,0.20644909,-0.48269334
20907451,0.9619264,0.1620977,-0.48499563
20929451,0.92244506,0.2074805,-0.4665774
20951444,0.9238551,0.20541766,-0.48844904
20973482,0.92526513,0.20644909,-0.48960018
20996693,0.9238551,0.2074805,-0.6012605
21018438,0.93231535,0.20438623,-0.6024116
21040856,0.921035,0.2074805,-0.47693768
21063443,0.921035,0.2074805,-0.47923994
21085505,1.0549895,0.17653769,-0.48154223
21107449,0.9294953,0.15900342,-0.48499563
21130439,0.9365455,0.15694056,-0.47348428
21152439,0.92244506,0.20644909,-0.49190244
21174440,0.9266752,0.20851193,-0.48269334
21196442,0.92244506,0.20954336,-0.59895825
21218439,0.9746168,0.21263765,-0.5851445
21240467,0.919625,0.21057479,-0.48269334
21263100,0.95346606,0.16416056,-0.48614678
21284439,0.9266752,0.15694056,-0.4872979
21306455,0.921035,0.21057479,-0.4803911
21328439,0.9266752,0.20851193,-0.47578654
21351439,0.9238551,0.20954336,-0.47693768
21373439,0.92808527,0.20954336,-0.60010934
21397487,0.92244506,0.21057479,-0.4872979
21419495,1.1536926,0.21057479,-0.4746354
21441479,1.163563,0.21263765,-0.4803911
21463480,0.9294953,0.20541766,-0.59895825
21485486,0.92244506,0.18994625,-0.48614678
21507509,0.92808527,0.20851193,-0.48269334
21529485,0.921035,0.21057479,-0.47348428
21551480,0.92244506,0.21057479,-0.49190244
21573485,1.1254917,0.21263765,-0.5034138
21595473,1.132542,0.17963198,-0.48499563
21617485,0.921035,0.21366906,-0.48614678
21641020,0.9238551,0.21160622,-0.48614678
21662439,0.92526513,0.20129195,-0.48154223
21684858,1.1071612,0.21366906,-0.5367968
21706439,0.9393656,0.20851193,-0.5506104
21729450,1.1410023,0.21366906,-0.4596706
21751439,0.9238551,0.21263765,-0.4930536
21773657,0.9238551,0.21160622,-0.4803911
21796439,1.1212616,0.1806634,-0.4838445
21817828,0.9294953,0.16622342,-0.48269334
21840443,0.92244506,0.21160622,-0.4838445
21862439,0.9238551,0.20954336,-0.48499563
21885449,0.92244506,0.21366906,-0.48499563
21907449,0.9294953,0.20954336,-0.60586506
21929449,0.9562862,0.21057479,-0.5839934
21951451,0.92244506,0.21057479,-0.48614678
21973443,0.9591063,0.16828628,-0.4907513
21995439,0.919625,0.19097768,-0.4838445
22017470,0.93231535,0.20541766,-0.4907513
22039438,0.92526513,0.20644909,-0.4838445
22061438,0.9139848,0.20851193,-0.6024116
22083451,0.9746168,0.18685196,-0.4803911
22105439,0.9111647,0.20851193,-0.48154223
22128484,0.91539484,0.2074805,-0.46197286
22149477,0.92808527,0.18685196,-0.48844904
22170473,0.90975463,0.20644909,-0.48499563
22191473,0.91257477,0.20438623,-0.6024116
22214450,0.91257477,0.20851193,-0.59090024
22236475,0.91257477,0.20438623,-0.4803911
22258439,0.9294953,0.1734434,-0.48154223
22280834,0.9182149,0.2074805,-0.48269334
22302442,0.9139848,0.2074805,-0.48269334
22325441,0.93795556,0.20232338,-0.49880925
22347439,0.9139848,0.20644909,-0.48499563
22370470,0.9168049,0.20851193,-0.48844904
22392439,0.9111647,0.20541766,-0.5955048
22415450,1.1170315,0.20541766,-0.51147175
22438439,0.9168049,0.20644909,-0.5713309
22460439,1.1663831,0.20438623,-0.4872979
22482439,0.9139848,0.20851193,-0.48154223
22504439,0.919625,0.18891482,-0.4838445
22527124,1.1536926,0.21057479,-0.46427515
22548439,0.919625,0.21057479,-0.52988994
22570464,0.921035,0.20954336,-0.47923994
22592439,1.1226716,0.2074805,-0.49535584
22614467,0.921035,0.2074805,-0.5920514
22636439,0.92244506,0.21160622,-0.47578654
22658438,0.9294953,0.19097768,-0.48499563
22680464,0.92244506,0.20541766,-0.4838445
22702438,0.92808527,0.21263765,-0.48269334
22724439,0.92244506,0.21263765,-0.46427515
22746439,1.1367722,0.2074805,-0.4803911
22768669,1.0916506,0.17034912,-0.4907513
22790439,0.9238551,0.20954336,-0.48614678
22812439,0.92808527,0.20026052,-0.4872979
22834442,0.92808527,0.2074805,-0.48614678
22856674,0.93090534,0.20644909,-0.5483082
22878450,0.92526513,0.2074805,-0.48499563
22900843,0.9351355,0.18788339,-0.48499563
22921523,1.07473,0.20851193,-0.4872979
22943438,0.92526513,0.20129195,-0.4838445
22964839,0.9294953,0.2074805,-0.48844904
22985660,0.9238551,0.20954336,-0.4838445
23007438,1.0944707,0.20851193,-0.47693768
23029613,0.9393656,0.20954336,-0.48499563
23050513,0.9365455,0.18375768,-0.48960018
23072447,0.9294953,0.20851193,-0.48614678
23096474,0.9421857,0.20129195,-0.4907513
23117681,0.93795556,0.2074805,-0.4907513
23139473,0.9562862,0.20851193,-0.56557524
23161468,0.99153733,0.2074805,-0.49765813
23183473,0.9365455,0.21160622,-0.4872979
23205472,0.94077563,0.16725485,-0.48269334
23227473,0.93231535,0.1961348,-0.48154223
23249496,0.93231535,0.21057479,-0.49535584
23271473,0.9294953,0.2074805,-0.49420473
23293468,0.919625,0.21160622,-0.60010934
23315485,0.93231535,0.20954336,-0.4746354
23337468,0.9421857,0.20851193,-0.47233313
23359480,0.9294953,0.18272625,-0.48499563
23382450,0.9266752,0.1847891,-0.48614678
23404482,0.9294953,0.21057479,-0.59895825
23426439,0.9266752,0.21057479,-0.4872979
23448439,0.9294953,0.20954336,-0.48499563
23470439,0.94359577,0.20644909,-0.5310411
23492496,0.9266752,0.1920091,-0.48499563
23514439,0.93090534,0.2074805,-0.48960018
23536906,0.93090534,0.20541766,-0.47233313
23557474,0.92808527,0.19510338,-0.48614678
23581438,0.92526513,0.21160622,-0.5759354
23603438,0.9294953,0.20851193,-0.4872979
23626439,0.9238551,0.20954336,-0.50456494
23648439,0.9421857,0.20644909,-0.4930536
23670439,1.1466424,0.21160622,-0.4780888
23691439,0.92244506,0.20851193,-0.48614678
23713642,0.92526513,0.21263765,-0.4872979
23735450,0.919625,0.20644909,-0.4746354
23758653,0.93231535,0.16828628,-0.48614678
23780448,0.9182149,0.2074805,-0.5506104
23802473,0.921035,0.20644909,-0.4907513
23823478,1.1522826,0.20851193,-0.4803911
23846653,0.9294953,0.20438623,-0.47233313
23867452,0.92244506,0.20541766,-0.4872979
23890438,0.92808527,0.20541766,-0.48844904
23912445,0.93231535,0.20851193,-0.49535584
23933443,0.9238551,0.20954336,-0.4780888
23955450,1.163563,0.20541766,-0.4803911
23977501,1.162153,0.2074805,-0.4746354
23999495,0.9266752,0.20851193,-0.47923994
24021501,0.9238551,0.19510338,-0.4803911
24043450,0.9266752,0.20954336,-0.47923994
24065450,0.92244506,0.2074805,-0.47923994
24088507,0.9393656,0.20541766,-0.47693768
24110451,0.9238551,0.21057479,-0.47693768
24132807,1.1438223,0.20644909,-0.46772856
24155528,1.0225583,0.2074805,-0.47118196
24177476,0.96615654,0.17963198,-0.47233313
24199478,0.9294953,0.20541766,-0.48269334
24222439,0.919625,0.2074805,-0.47923994
24244863,0.919625,0.20541766,-0.46772856
24267451,0.9139848,0.20644909,-0.47693768
24290445,0.91539484,0.19407195,-0.4780888
24312439,0.921035,0.20129195,-0.6012605
24334467,0.9633364,0.2033548,-0.50226265
24355479,0.9139848,0.19819766,-0.49535584
24379146,1.0549895,0.20129195,-0.48844904
24399451,0.91257477,0.18169482,-0.496507
24422440,0.9139848,0.2033548,-0.50456494
24444445,0.9027044,0.20541766,-0.5034138
24467439,0.8956542,0.20438623,-0.50456494
24489439,0.9027044,0.20438623,-0.6116207
24511443,1.1311319,0.20644909,-0.49765813
24533450,0.8956542,0.20438623,-0.4999604
24555864,0.89142406,0.20851193,-0.51147175
24577442,0.8857839,0.19510338,-0.5103206
24599441,0.8928341,0.20232338,-0.52068084
24621470,0.89988434,0.20129195,-0.5241343
24644474,1.0789602,0.1961348,-0.5252854
24666438,1.0056378,0.20129195,-0.5367968
24688484,1.1269017,0.20438623,-0.5310411
24710442,0.8928341,0.2033548,-0.5321923
24732478,0.88437384,0.20438623,-0.51837856
24754439,0.88014364,0.18891482,-0.53334343
24776906,1.0676799,0.20644909,-0.64155024
24797497,0.87027335,0.20541766,-0.53794795
24819439,1.101521,0.20438623,-0.5344945
24840838,0.87168336,0.20541766,-0.5460059
24861683,0.8745035,0.18685196,-0.55406386
24883452,0.8674532,0.20541766,-0.555215
24905618,0.9999976,0.20438623,-0.5437036
24926463,0.94359577,0.20232338,-0.54485476
24948446,1.0070478,0.18788339,-0.5678775
24971473,0.8871939,0.15590914,-0.5644241
24993657,0.858993,0.20026052,-0.57478434
25015529,0.85617286,0.19819766,-0.58629566
25037468,0.8533528,0.19819766,-0.5897491
25059473,0.84771264,0.1961348,-0.70831627
25082458,0.86322314,0.19097768,-0.65421283
25104454,0.90975463,0.19097768,-0.6081673
25127456,0.83925235,0.18891482,-0.6530617
25149439,0.8448925,0.18582053,-0.61277187
25171450,0.8505327,0.16312914,-0.6173764
25193443,0.83925235,0.1620977,-0.6265855
25215483,0.9619264,0.157972,-0.6231321
25236481,0.83925235,0.17860055,-0.63464344
25258457,0.919625,0.17860055,-0.65421283
25281438,1.0310186,0.17963198,-0.6530617
25303438,0.83220214,0.17860055,-0.6369457
25325439,0.8759135,0.12702918,-0.6277366
25346451,0.827972,0.17550626,-0.6461548
25368495,0.83220214,0.17447484,-0.6277366
25390451,0.8364323,0.17550626,-0.75436175
25412836,0.86463314,0.12909204,-0.63464344
25434453,0.83220214,0.17860055,-0.6427014
25457439,0.83361214,0.17860055,-0.64385253
25479449,0.83361214,0.12599775,-0.63234115
25501502,0.83925235,0.13012345,-0.64385253
25524450,0.84771264,0.14868915,-0.6369457
25545832,0.8209218,0.18169482,-0.64155024
25568439,0.81528157,0.18272625,-0.64039916
25590439,1.0084579,0.18375768,-0.7416992
25612439,1.0578095,0.18582053,-0.6300389
25634663,0.8082313,0.18788339,-0.6357946
25657451,0.8223318,0.18582053,-0.639248
25679451,0.80400115,0.1734434,-0.6334923
25701439,0.8124615,0.18375768,-0.6357946
25723439,0.79554087,0.19407195,-0.7037117
25745439,0.79554087,0.19510338,-0.62543434
25768513,0.7927208,0.1961348,-0.62198097
25790483,1.0338387,0.19922909,-0.6173764
25812484,0.8434825,0.16312914,-0.61507416
25834483,0.78003037,0.20438623,-0.61507416
25856484,0.78144044,0.19716623,-0.6070162
25878487,0.7828505,0.20644909,-0.61277187
25900532,0.7828505,0.20851193,-0.60931844
25922484,0.77862036,0.21263765,-0.6081673
25944505,1.015508,0.21057479,-0.6035628
25966485,0.86181307,0.17860055,-0.6070162
25988504,0.7772103,0.21057479,-0.6070162
26010485,0.7772103,0.20644909,-0.6070162
26032894,0.9999976,0.20954336,-0.6070162
26054557,0.78849065,0.21057479,-0.6991071
26077491,0.7856706,0.21366906,-0.72903675
26099449,0.79554087,0.20541766,-0.60586506
26121449,0.99858755,0.19304053,-0.6081673
26142438,0.79413086,0.2033548,-0.61622524
26164439,0.8025911,0.19407195,-0.62198097
26186439,0.799771,0.19922909,-0.6231321
26207450,0.8011811,0.1961348,-0.6277366
26230469,0.8025911,0.19097768,-0.6277366
26255062,0.80400115,0.19407195,-0.6265855
26277450,0.8829638,0.18994625,-0.7509083
26299442,0.8082313,0.18582053,-0.6334923
26321439,0.83220214,0.13940631,-0.6427014
26343468,0.8124615,0.16106628,-0.6427014
26365439,0.8096413,0.17860055,-0.6461548
26387449,0.8096413,0.1806634,-0.64730597
26409439,0.8124615,0.17653769,-0.7670242
26431873,1.0592196,0.15590914,-0.655364
26453442,0.81528157,0.17241198,-0.65421283
26475439,0.8505327,0.12496632,-0.6565151
26497450,0.82374185,0.12599775,-0.6634219
26520494,0.8082313,0.17756912,-0.655364
26542439,0.8082313,0.17653769,-0.6565151
26564465,0.79836094,0.17860055,-0.65191054
26586442,0.83079207,0.17860055,-0.7716288
26608487,0.7927208,0.18375768,-0.655364
26630438,0.79836094,0.18375768,-0.639248
26652867,0.799771,0.1847891,-0.64039916
26673489,0.8054112,0.13631202,-0.6427014
26695449,0.7899007,0.18994625,-0.63809687
26717449,0.8025911,0.18891482,-0.75551283
26739451,0.9689766,0.19304053,-0.7440015
26762284,0.7927208,0.19304053,-0.63809687
26783448,0.79554087,0.14456344,-0.63234115
26805651,0.7870806,0.18685196,-0.6357946
26827439,0.79413086,0.19304053,-0.6427014
26850449,0.78849065,0.19819766,-0.6288878
26872449,0.7913107,0.19716623,-0.6288878
26893439,0.86463314,0.19819766,-0.7393969
26915505,0.78003037,0.20129195,-0.6288878
26937438,0.7899007,0.15900342,-0.6231321
26959450,0.7743902,0.18582053,-0.62543434
26981439,0.78003037,0.20438623,-0.6242832
27003438,0.76875,0.21057479,-0.61622524
27025439,0.7758002,0.21160622,-0.7244322
27047439,0.9774369,0.21676335,-0.6265855
27069442,0.76875,0.21779478,-0.6012605
27092449,0.7588797,0.22295193,-0.5828423
27114449,0.7701601,0.17447484,-0.59320253
27136485,0.75041944,0.19510338,-0.5874468
27158474,0.77157015,0.22398336,-0.5978071
27180505,0.8011811,0.22501479,-0.70025826
27202445,0.7461893,0.23120335,-0.68644464
27226468,0.7447793,0.23326619,-0.5759354
27248473,0.96051633,0.23532905,-0.57938886
27269580,0.9873072,0.21160622,-0.5759354
27291484,0.7349089,0.21263765,-0.5621218
27314442,0.7334988,0.22295193,-0.5678775
27336852,0.87027335,0.2415176,-0.6576662
27359439,0.72785866,0.24358046,-0.55406386
27381846,0.90975463,0.24976905,-0.5920514
27403453,0.7334988,0.24770619,-0.54485476
27425636,0.7349089,0.20851193,-0.5414014
27447473,0.7433692,0.20954336,-0.54025024
27470438,0.7095281,0.20438623,-0.5414014
27492439,0.7038879,0.24976905,-0.54025024
27515438,0.6954276,0.2518319,-0.5506104
27537439,0.6883774,0.24976905,-0.54485476
27560439,0.6799171,0.25389475,-0.5437036
27582626,0.7856706,0.20851193,-0.54715705
27604439,0.7193984,0.25802046,-0.6484571
27626439,0.6559463,0.2590519,-0.53564566
27648439,0.68414724,0.21366906,-0.5321923
27670448,0.6418458,0.20954336,-0.5321923
27692445,0.61646503,0.264209,-0.521832
27714478,0.6122349,0.26008332,-0.5344945
27736439,0.5967244,0.2673033,-0.6300389
27758439,0.6362057,0.26524043,-0.6265855
27780439,0.56570333,0.27039757,-0.50916946
27802438,0.55301297,0.23017192,-0.5011115
27824501,0.5417326,0.26936615,-0.49880925
27846444,0.53327227,0.27039757,-0.4907513
27868439,0.51917183,0.271429,-0.47578654
27890439,0.5064814,0.271429,-0.48844904
27911453,0.50225127,0.271429,-0.47578654
27934473,0.4909709,0.27039757,-0.4596706
27956844,0.47828048,0.2745233,-0.45391488
27978512,0.47405034,0.25389475,-0.44931036
27999502,0.45712978,0.27349186,-0.42974102
28022438,0.46276996,0.26936615,-0.42398533
28044439,0.4359791,0.26936615,-0.4101717
28066438,0.42892885,0.26936615,-0.39405575
28088450,0.41200832,0.26627186,-0.38369554
28110439,0.40777817,0.26627186,-0.3698819
28131439,0.40072796,0.25802046,-0.34685913
28153449,0.39649782,0.25286332,-0.35721937
28175442,0.3753471,0.25286332,-0.33419663
28198446,0.3598366,0.2518319,-0.43434557
28220439,0.46700013,0.24461189,-0.31577843
28242439,0.33445576,0.23842333,-0.3307432
28264439,0.33163568,0.19407195,-0.32613868
28286467,0.30343476,0.19819766,-0.31923184
28307908,0.2780539,0.21779478,-0.2939068
28330438,0.26677355,0.20644909,-0.28469774
28352439,0.24280277,0.1961348,-0.39060235
28374449,0.2893343,0.18272625,-0.27088407
28396727,0.19486119,0.17241198,-0.27088407
28420675,0.17653058,0.157972,-0.26973292
28444658,0.18217076,0.106400624,-0.25707042
28466449,0.3838074,0.046577845,-0.34340572
28488449,0.118718676,0.11568347,-0.24671018
28510451,0.118718676,0.10021207,-0.24671018
28531474,0.09615794,0.08886637,-0.23519881
28552885,0.08628762,0.083709225,-0.24555904
28573488,0.0764173,0.07545781,-0.24671018
28595442,0.08910771,0.06514353,-0.25476816
28616857,0.0707771,0.06411211,-0.24555904
28637511,0.056676645,0.06308068,-0.25131476
28659455,0.05808669,0.058954976,-0.2444079
28681624,0.05808669,0.050703555,-0.24325678
28702475,0.05808669,-0.00086781196,-0.24901246
28724453,0.048216365,0.04451499,-0.23519881
28747474,0.03834604,0.04554642,-0.25131476
28769474,0.045396276,0.043483563,-0.26052386
28791472,0.034115903,0.047609273,-0.36412618
28813474,0.042576183,0.04554642,-0.34110346
28835468,0.03834604,0.046577845,-0.26167497
28857474,0.053856548,0.009446462,-0.26397726
28879518,0.043986227,0.047609273,-0.2685818
28901501,0.056676645,0.04451499,-0.27548862
28925439,0.03129581,0.04554642,-0.25131476
28947453,0.028475719,0.04554642,-0.26627952
28969450,0.034115903,0.04142071,-0.28584886
28991500,0.03270586,0.04038928,-0.2720352
29014439,0.034115903,0.037295,-0.29160455
29036478,0.2752338,0.038326427,-0.28815114
29058439,0.03552595,0.037295,-0.2962091
29080471,0.029885763,0.039357856,-0.28009316
29102450,0.036935996,0.04038928,-0.28469774
29124439,0.021425486,0.04038928,-0.26973292
29146439,0.028475719,0.04554642,-0.2927557
29169442,0.042576183,0.04451499,-0.29851136
29191438,0.027065672,0.046577845,-0.29505795
29214473,0.20332146,0.046577845,-0.31002274
29236880,0.02424558,0.046577845,-0.31577843
29258473,0.017195348,0.043483563,-0.31692958
29279499,0.011555162,0.038326427,-0.32038298
29300473,0.01296521,0.031106437,-0.3272898
29322473,0.003094885,0.029043581,-0.33304548
29343473,0.018605394,0.02491787,-0.33765003
29366439,0.00027479234,0.02491787,-0.33534774
29388439,-0.0025453002,0.008415034,-0.32268524
29411450,-0.0067754393,0.016666451,-0.32959208
29433451,-0.005365393,0.014603598,-0.34110346
29455452,0.00027479234,0.014603598,-0.33995232
29477443,0.007325024,0.011509316,-0.345708
29499471,-0.0039553465,0.010477888,-0.34110346
29520467,-0.011005579,0.011509316,-0.33880118
29542448,-0.0067754393,0.004289325,-0.34340572
29565450,-0.012415624,0.012540744,-0.3422546
29587472,-0.0025453002,-0.012213512,-0.3307432
29609451,-0.0025453002,0.011509316,-0.35146368
29630439,0.19063105,0.014603598,-0.32844093
29653450,-0.0039553465,0.012540744,-0.3422546
29674439,-0.0011352539,0.014603598,-0.33534774
29696439,-0.0025453002,0.018729309,-0.3422546
29718450,-0.0011352539,0.018729309,-0.345708
29740711,-0.005365393,0.020792162,-0.33995232
29762449,-0.008185485,0.023886444,-0.33419663
29784868,0.18076071,0.02182359,-0.33304548
29806471,0.003094885,0.022855017,-0.33534774
29827474,0.0059149773,0.023886444,-0.33534774
29848959,0.0059149773,0.0259493,-0.33304548
29871454,0.004504931,0.0259493,-0.32153413
29893487,0.011555162,0.030075008,-0.3238364
29915458,0.015785301,0.03420072,-0.3272898
29937639,0.03129581,0.005320752,-0.31808072
29960442,0.015785301,0.04038928,-0.32498753
29982476,0.02001544,0.043483563,-0.31923184
30004453,0.021425486,0.03316929,-0.32613868
30026453,0.022835532,0.050703555,-0.32268524
30047439,0.028475719,0.048640702,-0.31347618
30071071,0.02424558,0.053797837,-0.32268524
30092454,0.03129581,0.05276641,-0.31923184
30114491,0.017195348,0.053797837,-0.31808072
30135470,0.021425486,0.051734984,-0.31923184
30158453,0.021425486,0.048640702,-0.32959208
30179441,0.018605394,0.049672127,-0.3272898
30202457,0.021425486,0.047609273,-0.3272898
30224455,0.022835532,0.04038928,-0.33995232
30245439,0.011555162,0.038326427,-0.33995232
30267439,0.00027479234,0.037295,-0.3307432
30289442,0.004504931,0.03316929,-0.34455687
30312665,0.0059149773,0.029043581,-0.34340572
30336675,0.007325024,0.026980726,-0.34455687
30358439,0.007325024,0.0259493,-0.345708
30381512,0.004504931,0.026980726,-0.34455687
30403468,0.003094885,0.0259493,-0.4596706
30425490,0.0059149773,0.029043581,-0.34110346
30447468,0.00027479234,0.026980726,-0.33534774
30469473,0.010145117,0.02491787,-0.33534774
30491487,0.00873507,0.028012155,-0.33419663
30513533,0.003094885,0.031106437,-0.32844093
30534475,0.01296521,0.031106437,-0.32498753
30554525,0.007325024,0.03420072,-0.33534774
30576471,0.00873507,0.03316929,-0.32153413
30599453,0.0059149773,0.03626357,-0.32959208
30621628,0.010145117,0.03626357,-0.33304548
30644439,0.014375255,0.032137863,-0.32844093
30667442,0.0059149773,0.035232145,-0.33189434
30689439,0.010145117,0.03316929,-0.3272898
30711473,0.010145117,0.035232145,-0.43895012
30732475,0.010145117,0.03420072,-0.3065693
30754638,0.011555162,0.035232145,-0.31808072
30777439,0.01296521,0.03626357,-0.32038298
30799447,0.017195348,0.0073836073,-0.32498753
30821442,0.02001544,0.03626357,-0.3307432
30843439,0.014375255,0.039357856,-0.3238364
30865444,0.025655625,0.042452138,-0.37793985
30886453,0.029885763,0.04142071,-0.31923184
30909439,0.029885763,0.043483563,-0.32268524
30931439,0.03270586,0.04554642,-0.2996625
30953439,0.028475719,0.0073836073,-0.3088716
30975443,0.041166138,0.048640702,-0.31232503
30997468,0.039756086,0.051734984,-0.30196476
31020478,0.041166138,0.048640702,-0.42398533
31042438,0.02424558,0.050703555,-0.30081365
31064806,0.03552595,0.047609273,-0.3031159
31087442,0.24985299,0.04554642,-0.29851136
31109450,0.03552595,0.04554642,-0.29851136
31130439,0.03129581,0.02491787,-0.28469774
31152825,0.034115903,0.043483563,-0.29736024
31174439,0.03129581,0.04142071,-0.2927557
31196439,0.025655625,0.04038928,-0.2927557
31218439,0.027065672,0.038326427,-0.29736024
31240450,0.03270586,0.035232145,-0.29851136
31262442,0.025655625,-0.006024949,-0.2996625
31284439,0.018605394,0.03316929,-0.29505795
31306468,0.018605394,0.026980726,-0.2962091
31327481,0.02001544,0.026980726,-0.27894202
31351438,0.02001544,0.026980726,-0.29505795
31373438,0.021425486,0.02491787,-0.2996625
31395442,0.015785301,0.023886444,-0.29851136
31417439,0.03129581,0.022855017,-0.3031159
31439927,0.017195348,0.023886444,-0.3054182
31461450,0.018605394,0.010477888,-0.3031159
31483439,0.01296521,0.019760735,-0.3031159
31505439,0.011555162,0.015635027,-0.3054182
31527479,0.06372688,-0.008087803,-0.29736024
31549443,0.02001544,0.011509316,-0.31692958
31571450,0.0016848387,0.014603598,-0.3146273
31593471,0.007325024,0.01357217,-0.32498753
31616486,0.010145117,0.014603598,-0.32268524
31638438,0.0016848387,0.015635027,-0.3272898
31660839,0.15396984,0.01357217,-0.32153413
31682444,-0.0011352539,0.011509316,-0.32268524
31703443,0.2075516,0.011509316,-0.32498753
31726477,-0.0039553465,0.009446462,-0.30772045
31748896,0.0016848387,0.010477888,-0.3272898
31770473,-0.0067754393,0.008415034,-0.31808072
31791473,-0.0011352539,0.008415034,-0.3272898
31814439,-0.005365393,0.006352179,-0.32844093
31837696,0.007325024,0.006352179,-0.32844093
31858469,-0.005365393,0.005320752,-0.33419663
31880439,-0.0067754393,0.009446462,-0.32844093
31902438,-0.0011352539,0.0073836073,-0.32498753
31924450,-0.0025453002,0.005320752,-0.3111739
31947094,0.007325024,0.006352179,-0.3272898
31968439,0.00873507,0.0073836073,-0.31692958
31989439,0.0016848387,0.008415034,-0.32038298
32012439,-0.005365393,0.009446462,-0.31692958
32033442,0.0016848387,0.008415034,-0.3065693
32056439,0.0059149773,0.008415034,-0.3111739
32078439,-0.0025453002,0.009446462,-0.3146273
32100439,0.007325024,0.005320752,-0.31347618
32122439,0.003094885,0.010477888,-0.3031159
32144474,0.003094885,0.008415034,-0.31002274
32165472,0.00027479234,0.0073836073,-0.30081365
32187438,0.0016848387,0.010477888,-0.29505795
32210438,-0.005365393,0.006352179,-0.3054182
32232439,0.007325024,0.009446462,-0.3088716
32254439,0.003094885,0.006352179,-0.31002274
32276700,0.004504931,0.006352179,-0.3088716
32298443,0.007325024,0.0073836073,-0.31232503
32322439,0.0059149773,0.008415034,-0.3054182
32344856,0.00873507,0.009446462,-0.3088716
32366439,0.010145117,0.010477888,-0.3054182
32389569,0.2047315,0.011509316,-0.29851136
32411438,0.010145117,0.011509316,-0.3065693
32432839,0.0059149773,0.01357217,-0.3031159
32454438,0.003094885,0.016666451,-0.30772045
32476439,0.00873507,0.016666451,-0.3238364
32497623,0.004504931,0.016666451,-0.3088716
32519439,0.056676645,0.004289325,-0.31232503
32542293,0.03270586,0.015635027,-0.32613868
32564445,0.007325024,0.019760735,-0.3146273
32586454,0.011555162,0.018729309,-0.31347618
32608450,0.01296521,0.020792162,-0.3054182
32631439,0.011555162,0.018729309,-0.2962091
32653439,0.017195348,0.01769788,-0.3238364
32675467,0.004504931,0.01769788,-0.32844093
32697443,0.09615794,0.016666451,-0.32268524
32719478,0.010145117,0.015635027,-0.45046148
32741439,-0.005365393,0.012540744,-0.33304548
32763438,0.00027479234,0.010477888,-0.33880118
32785439,-0.0025453002,0.011509316,-0.3549171
32808477,-0.0011352539,0.012540744,-0.44585693
32830443,0.007325024,0.008415034,-0.45621717
32852480,0.0059149773,0.012540744,-0.34685913
32874470,0.028475719,-0.016339222,-0.34455687
32896457,0.0059149773,0.016666451,-0.34455687
32918439,-0.0011352539,0.015635027,-0.34801027
32940478,-0.0039553465,0.015635027,-0.345708
32961507,0.0016848387,0.02182359,-0.46197286
32983450,0.02424558,0.020792162,-0.36067277
33004821,0.12435886,0.023886444,-0.34801027
33025672,0.01296521,0.026980726,-0.3422546
33047446,0.01296521,0.028012155,-0.33534774
33069651,0.00873507,0.031106437,-0.35146368
33090479,0.01296521,0.031106437,-0.33534774
33112439,0.021425486,0.03420072,-0.35031256
33136488,0.02001544,0.035232145,-0.33534774
33157669,0.036935996,0.03420072,-0.34685913
33179473,0.022835532,0.04142071,-0.35952163
33202622,0.02001544,0.039357856,-0.345708
33225450,0.022835532,0.039357856,-0.35261482
33247450,0.018605394,0.043483563,-0.34110346
33269467,0.017195348,0.039357856,-0.4596706
33290669,0.014375255,0.043483563,-0.34916142
33313443,0.10179813,0.04038928,-0.34916142
33335451,0.02001544,0.04038928,-0.34685913
33357451,0.015785301,0.038326427,-0.34685913
33379513,0.027065672,0.039357856,-0.34801027
33402450,0.021425486,0.039357856,-0.35031256
33424450,0.034115903,0.04038928,-0.4320433
33446445,0.02001544,0.04451499,-0.45621717
33468485,0.03552595,0.04451499,-0.345708
33490450,0.029885763,0.049672127,-0.34455687
33512450,0.042576183,0.05276641,-0.33995232
33534439,0.049626414,0.057923544,-0.32959208
33556509,0.05103646,0.0672064,-0.33304548
33577483,0.05103646,0.06926925,-0.3986603
33599438,0.06936706,0.06926925,-0.3364989
33621442,0.06372688,0.07648924,-0.32959208
33643438,0.07359719,0.038326427,-0.32498753
33666451,0.07500725,0.054829266,-0.31692958
33687450,0.07218715,0.08577209,-0.30426705
33710451,0.09615794,0.08886637,-0.32498753
33731451,0.0764173,0.09608636,-0.4262876
33753624,0.08628762,0.09711778,-0.31347618
33775443,0.10743831,0.0713321,-0.3146273
33798450,0.09333785,0.103306346,-0.31347618
33820439,0.09615794,0.101243496,-0.3111739
33842481,0.09333785,0.101243496,-0.30426705
33863467,0.10320818,0.09814921,-0.3088716
33886678,0.09474789,0.102274925,-0.3111739
33907438,0.09615794,0.103306346,-0.3031159
33930451,0.09897803,0.104337774,-0.2962091
33952439,0.106028266,0.07236353,-0.31002274
33973439,0.11166845,0.104337774,-0.31232503
33995439,0.10461822,0.10949492,-0.3111739
34017439,0.10743831,0.113620624,-0.29736024
34039497,0.34009594,0.11465205,-0.31577843
34061439,0.11589859,0.11568347,-0.31577843
34083442,0.10179813,0.1167149,-0.3111739
34105439,0.11730863,0.082677804,-0.31347618
34128482,0.106028266,0.1167149,-0.2962091
34150458,0.10743831,0.11877776,-0.31577843
34172439,0.10320818,0.1167149,-0.30772045
34194448,0.108848356,0.11877776,-0.41247398
34216458,0.11448854,0.11980918,-0.30426705
34238439,0.1130785,0.11877776,-0.29851136
34260806,0.118718676,0.11877776,-0.31808072
34282449,0.12435886,0.070300676,-0.3031159
34303450,0.11730863,0.11774633,-0.3065693
34326484,0.11730863,0.121872045,-0.29160455
34348484,0.12999906,0.12599775,-0.31232503
34370478,0.12576891,0.12599775,-0.31577843
34392484,0.13281915,0.12599775,-0.30426705
34414485,0.16384016,0.09711778,-0.31232503
34436512,0.13704927,0.08474065,-0.3054182
34458491,0.13422918,0.13218631,-0.2893023
34480485,0.14409952,0.13115488,-0.3111739
34502483,0.13704927,0.13115488,-0.4228342
34524538,0.13986938,0.13424917,-0.29736024
34547119,0.14268947,0.13528061,-0.3111739
34569439,0.14268947,0.13734345,-0.31232503
34591480,0.13563924,0.13837488,-0.31232503
34614439,0.1497397,0.13631202,-0.30081365
34636480,0.14691961,0.14043774,-0.30196476
34658439,0.14409952,0.13940631,-0.2939068
34680439,0.15396984,0.14043774,-0.31347618
34702472,0.15819998,0.1425006,-0.30196476
34723919,0.32740554,0.14146917,-0.28009316
34746439,0.15678993,0.14353201,-0.30081365
34768439,0.15114975,0.14559487,-0.30081365
34790442,0.15961002,0.13321774,-0.31002274
34812695,0.14691961,0.14559487,-0.30081365
34836718,0.15961002,0.14559487,-0.3065693
34861486,0.16243011,0.14456344,-0.31347618
34882439,0.1652502,0.14353201,-0.3111739
34904812,0.18640089,0.12290347,-0.30196476
34925468,0.16807029,0.1466263,-0.27779087
34947450,0.17512053,0.11568347,-0.2835466
34969023,0.16807029,0.14868915,-0.3054182
34991438,0.16384016,0.14868915,-0.29851136
35014266,0.17794062,0.15178344,-0.2927557
35035447,0.19486119,0.14972058,-0.2927557
35057658,0.18217076,0.15487772,-0.287
35079454,0.2569032,0.15487772,-0.29505795
35102439,0.17794062,0.157972,-0.27779087
35124439,0.1835808,0.16003485,-0.2685818
35146468,0.18640089,0.16003485,-0.26973292
35168445,0.19768128,0.157972,-0.28239545
35191448,0.1920411,0.16106628,-0.27779087
35213439,0.18640089,0.16312914,-0.28584886
35237473,0.19345114,0.16312914,-0.2720352
35259482,0.1920411,0.16312914,-0.28584886
35281529,0.19486119,0.16416056,-0.28009316
35303468,0.2047315,0.1620977,-0.3364989
35325473,0.19768128,0.16416056,-0.27088407
35346468,0.20896165,0.1620977,-0.2812443
35369439,0.19768128,0.16003485,-0.2835466
35392478,0.19768128,0.16416056,-0.27663976
35414439,0.19486119,0.16106628,-0.28009316
35436440,0.29920462,0.1620977,-0.2628261
35458439,0.2019114,0.16003485,-0.27779087
35480481,0.2075516,0.1620977,-0.29505795
35502478,0.19627123,0.16003485,-0.2812443
35523478,0.19063105,0.16003485,-0.27663976
35546442,0.19345114,0.15590914,-0.27894202
35569438,0.18217076,0.15590914,-0.32498753
35591438,0.1835808,0.1538463,-0.28584886
35613450,0.17653058,0.15075201,-0.28239545
35634439,0.1737105,0.15590914,-0.28239545
35656439,0.17653058,0.13734345,-0.2835466
35678439,0.1708904,0.14868915,-0.287
35700442,0.1737105,0.14868915,-0.29851136
35722439,0.18922101,0.14456344,-0.27894202
35744450,0.16948035,0.14765772,-0.28584886
35766451,0.16807029,0.14972058,-0.2812443
35788439,0.1737105,0.14765772,-0.2835466
35810680,0.17512053,0.15178344,-0.2996625
35831477,0.1737105,0.1466263,-0.27779087
35854451,0.18076071,0.15075201,-0.287
35875459,0.17794062,0.15178344,-0.28815114
35899510,0.17935067,0.15075201,-0.28239545
35921439,0.39790785,0.15075201,-0.28239545
35943439,0.18499085,0.15281487,-0.2835466
35965450,0.18076071,0.15900342,-0.28469774
35987460,0.18217076,0.15590914,-0.28815114
36009448,0.18076071,0.15590914,-0.27894202
