timestamp,lat,lon,alt,delta_alt,vel_n,vel_e,vel_d,yaw,eph,epv,terrain_alt,lat_lon_reset_counter,alt_reset_counter,terrain_alt_valid,dead_reckoning
411670130,22.59091899570514,113.97504632304084,26.98915,-0.0,-0.031399168,-0.10136088,0.5117304,2.2984796,3.8471696,6.389759,0.0,2,0,0,0
411674143,22.590918992840695,113.97504631906119,26.987045,-0.0,-0.031221455,-0.10085088,0.5142613,2.2983308,3.8473837,6.3897634,0.0,2,0,0,0
411874915,22.59091897480742,113.97504623196046,26.90575,-0.0,-0.016240777,-0.06528976,0.48950145,2.2893665,3.650787,6.3911376,0.0,2,0,0,0
412076530,22.590919045155182,113.97504624323379,26.865929,-0.0,0.004480477,-0.03907218,0.4178641,2.306803,3.528136,6.392056,0.0,2,0,0,0
412277391,22.59091921358009,113.97504628666489,26.855402,-0.0,0.044801254,-0.050997663,0.36927193,2.3071184,3.444177,6.392455,0.0,2,0,0,0
412482163,22.59091940122748,113.97504652017294,26.877544,-0.0,0.030195247,0.009432114,0.33725023,2.2975018,3.3840625,6.392588,0.0,2,0,0,0
412682914,22.590919546753447,113.97504671658777,26.875917,-0.0,0.064068496,-0.014889006,0.28671244,2.30351,3.3382914,6.3925714,0.0,2,0,0,0
412887753,22.59091963445547,113.97504688813261,26.884533,-0.0,0.050382983,0.027427942,0.27470616,2.3003833,3.3030362,6.392294,0.0,2,0,0,0
413088528,22.59091966989914,113.97504696324964,26.894152,-0.0,0.043226566,0.01784677,0.23870656,2.306019,3.274534,6.3920317,0.0,2,0,0,0
413294131,22.590919679949444,113.97504696722464,26.922264,-0.0,0.050319433,0.035064325,0.22174536,2.2981102,3.251482,6.391957,0.0,2,0,0,0
413494980,22.59091965627545,113.97504694596394,26.94458,-0.0,0.06511493,0.04795386,0.17847258,2.2732484,3.2324085,6.391633,0.0,2,0,0,0
413699758,22.59091963940779,113.97504675066696,26.95055,-0.0,0.044560097,0.038424574,0.19563259,2.293608,3.2165358,6.391191,0.0,2,0,0,0
413900521,22.590919550734938,113.97504651375283,26.96288,-0.0,0.07173496,-0.008757383,0.16471523,2.2874236,3.2028573,6.390891,0.0,2,0,0,0
414105329,22.590919477618673,113.97504638734908,26.970984,-0.0,0.06098275,-0.0054825144,0.14897282,2.2901006,3.1914685,6.390639,0.0,2,0,0,0
414306158,22.59091942472959,113.9750464087115,26.97826,-0.0,0.05012627,0.011746149,0.16111684,2.298713,3.1818242,6.3903713,0.0,2,0,0,0
414511714,22.590919349334555,113.97504650628488,26.989527,-0.0,0.0632644,0.0065899575,0.13706379,2.2921987,3.1732957,6.390115,0.0,2,0,0,0
414712543,22.59091925141868,113.97504659720761,27.00976,-0.0,0.012372629,0.026294656,0.14710231,2.29096,3.1657393,6.3898735,0.0,2,0,0,0
414917332,22.59091907391661,113.97504679060864,27.016863,-0.0,0.057475556,0.026404517,0.11303476,2.283976,3.1463468,6.3896503,0.0,2,0,0,0
415118137,22.590918950866214,113.97504673592081,27.027,-0.0,0.06313929,-0.0034171487,0.109526075,2.2974234,3.13933,6.389408,0.0,2,0,0,0
415319004,22.590918889224454,113.97504666573396,27.029657,-0.0,0.05588326,0.0138974525,0.12183252,2.2864926,3.134752,6.389232,0.0,2,0,0,0
415523714,22.59091881004351,113.97504657398765,27.031876,-0.0,0.061443992,-0.0016615671,0.10710289,2.2885458,3.1311889,6.389018,0.0,2,0,0,0
415725332,22.590918713899136,113.97504648989836,27.040478,-0.0,0.055126984,0.003937339,0.11040085,2.2856963,3.127489,6.388862,0.0,2,0,0,0
415926125,22.59091859100792,113.97504633595467,27.046072,-0.0,0.051114116,-0.015227262,0.1053642,2.2918043,3.1230052,6.3887854,0.0,2,0,0,0
416130914,22.590918485711676,113.97504618232182,27.05846,-0.0,0.028980682,-0.008980008,0.10938185,2.2874553,3.1206717,6.3886137,0.0,2,0,0,0
416335867,22.59091837156712,113.97504598126488,27.071888,-0.0,0.06607875,-0.032219686,0.0845824,2.2883277,3.1184778,6.388523,0.0,2,0,0,0
416536527,22.59091825997833,113.97504579214697,27.084864,-0.0,0.024237758,-0.010786545,0.098740496,2.2843046,3.1161463,6.3884153,0.0,2,0,0,0
416741324,22.5909181405451,113.97504559755822,27.096193,-0.0,0.031301454,-0.037256684,0.07722411,2.2787564,3.1138127,6.388385,0.0,2,0,0,0
416942932,22.590918063720345,113.97504533241074,27.094706,-0.0,0.0216651,-0.013452127,0.0995707,2.2850633,3.1122215,6.3882475,0.0,2,0,0,0
417147732,22.59091793176387,113.97504508772475,27.092178,-0.0,0.05025988,-0.08165691,0.07790555,2.292922,3.1115108,6.3882003,0.0,2,0,0,0
417348525,22.590917822782764,113.97504495204682,27.082846,-0.0,0.020599626,-0.04097125,0.0937798,2.2931278,3.1103766,6.3881435,0.0,2,0,0,0
417553314,22.590917657199594,113.97504487855693,27.076593,-0.0,0.017763874,-0.039106853,0.09524611,2.2929585,3.1100063,6.3880644,0.0,2,0,0,0
417754310,22.59091753184053,113.97504484333211,27.073082,-0.0,0.013521281,-0.030631319,0.09686192,2.2924182,3.1091208,6.388021,0.0,2,0,0,0
417959722,22.59091737762805,113.9750448272094,27.064478,-0.0,0.008839127,-0.02319553,0.10076326,2.2921977,3.1088428,6.3880143,0.0,2,0,0,0
418160536,22.590917211026138,113.97504497272189,27.05074,-0.0,0.001420003,-0.0057348395,0.10555546,2.293661,3.108638,6.3879895,0.0,2,0,0,0
418365332,22.59091711223484,113.97504522721309,27.035797,-0.0,0.0001393666,0.016997006,0.109214455,2.2951267,3.1085517,6.387979,0.0,2,0,0,0
418566147,22.59091700742545,113.97504546105934,27.033783,-0.0,-0.0013658088,0.036181603,0.11086929,2.2968187,3.1082356,6.3879733,0.0,2,0,0,0
418770914,22.590916826391403,113.9750455275234,27.027643,-0.0,-0.006078669,0.046485286,0.11279826,2.2968035,3.1084816,6.3879895,0.0,2,0,0,0
418971724,22.590916677615546,113.97504551966846,27.02586,-0.0,-0.009605864,0.051776435,0.11334421,2.2960892,3.108644,6.387994,0.0,2,0,0,0
419176526,22.59091655948549,113.97504554446003,27.015188,-0.0,-0.011197302,0.059993245,0.11727155,2.296172,3.1089733,6.3879633,0.0,2,0,0,0
420189315,22.59091591001126,113.9750454270428,26.962631,-0.0,-0.024493728,0.0904378,0.13023283,2.296452,3.1097686,6.388021,0.0,2,0,0,0
420595741,22.59091565372639,113.9750448020595,26.947317,-0.0,-0.028128576,0.069141045,0.12991272,2.292684,3.1118665,6.3880863,0.0,2,0,0,0
420800543,22.590915441906365,113.97504459366662,26.944508,-0.0,-0.03964875,0.07998991,0.1327519,2.2906575,3.11201,6.388107,0.0,2,0,0,0
421001315,22.590915197227247,113.97504436331484,26.940886,-0.0,-0.040127996,0.075066425,0.12858286,2.2915015,3.113956,6.38815,0.0,2,0,0,0
421202146,22.590915034760457,113.97504422611664,26.943964,-0.0,-0.050828278,0.0812256,0.1286162,2.293881,3.1152954,6.388162,0.0,2,0,0,0
421406945,22.590914883433328,113.9750439443214,26.941887,-0.0,-0.050913587,0.07717451,0.12608139,2.2914484,3.1167498,6.3881845,0.0,2,0,0,0
421607799,22.59091469182968,113.97504356362336,26.944927,-0.0,-0.056271046,0.06898294,0.124953195,2.2911525,3.1186364,6.3881707,0.0,2,0,0,0
421813340,22.59091449537302,113.97504323628195,26.95092,-0.0,-0.057853974,0.07351896,0.12162677,2.2944872,3.119215,6.388179,0.0,2,0,0,0
422014148,22.59091432793743,113.97504286615954,26.958527,-0.0,-0.051971585,0.10213266,0.09658372,2.287624,3.1199412,6.388196,0.0,2,0,0,0
422218974,22.5909141818179,113.97504244356735,26.95863,-0.0,-0.055469844,0.100119844,0.11075772,2.2818382,3.1222413,6.388181,0.0,2,0,0,0
422419739,22.590914052462406,113.97504195858721,26.949497,-0.0,-0.06450808,0.048739884,0.120408125,2.2678304,3.122991,6.3881965,0.0,2,0,0,0
422624518,22.590913843309142,113.97504122045547,26.933832,-0.0,-0.060621098,0.029944582,0.12445779,2.2464015,3.1251948,6.3882256,0.0,2,0,0,0
422825357,22.590913592783437,113.97504039919176,26.915577,-0.0,-0.061950687,0.009874541,0.12849335,2.2550488,3.1271694,6.388186,0.0,2,0,0,0
423030941,22.590913334657785,113.97503954182204,26.898254,-0.0,-0.07030479,-0.0053880336,0.13489543,2.2537546,3.1274264,6.388199,0.0,2,0,0,0
423231725,22.590913079769788,113.9750385434021,26.891863,-0.0,-0.07237118,-0.02443391,0.13929546,2.2511039,3.128461,6.3882103,0.0,2,0,0,0
423436524,22.59091280133365,113.97503749245605,26.891693,-0.0,-0.07900406,-0.04573514,0.13587059,2.2493927,3.1285098,6.388237,0.0,2,0,0,0
423637315,22.590912502938163,113.97503653435021,26.897612,-0.0,-0.08288984,-0.06172853,0.13340263,2.2471993,3.12998,6.3882475,0.0,2,0,0,0
423842127,22.590912215216253,113.97503558744502,26.89937,-0.0,-0.08714762,-0.07634212,0.13296212,2.2458887,3.1319342,6.388264,0.0,2,0,0,0
424042946,22.590911987750843,113.97503471982336,26.896877,-0.0,-0.09211229,-0.091164365,0.13546069,2.2450619,3.132869,6.388266,0.0,2,0,0,0
424243714,22.590911815657023,113.97503381712042,26.893103,-0.0,-0.08809237,-0.10120304,0.13564885,2.2342768,3.132011,6.3882627,0.0,2,0,0,0
424445315,22.590911605147,113.97503286868248,26.88103,-0.0,-0.09214935,-0.116030164,0.14200647,2.2284257,3.1322913,6.3882546,0.0,2,0,0,0
424650153,22.59091137704958,113.97503191071019,26.87641,-0.0,-0.09101856,-0.12182598,0.15010966,2.2443838,3.1317248,6.388269,0.0,2,0,0,0
424854953,22.590911083901332,113.97503097145828,26.876575,-0.0,-0.090679236,-0.13733858,0.14268686,2.2479982,3.133564,6.388269,0.0,2,0,0,0
425055732,22.590910724579775,113.9750298697343,26.87695,-0.0,-0.10036696,-0.1537253,0.14376526,2.2433357,3.135187,6.3882647,0.0,2,0,0,0
425260569,22.59091033359341,113.9750288298589,26.871487,-0.0,-0.10953736,-0.16611521,0.14770688,2.2442813,3.133862,6.38827,0.0,2,0,0,0
425461362,22.590909906486193,113.97502806747296,26.866547,-0.0,-0.10451174,-0.1703007,0.14687654,2.245382,3.1302412,6.3882384,0.0,2,0,0,0
425666928,22.590909450174568,113.97502721993614,26.855682,-0.0,-0.12523554,-0.17188141,0.14972296,2.2445984,3.1316285,6.3882003,0.0,2,0,0,0
425867718,22.590909011461044,113.97502636899821,26.843935,-0.0,-0.1384401,-0.17311087,0.15741059,2.2431693,3.1321201,6.3881965,0.0,2,0,0,0
426072521,22.59090860509632,113.9750256343399,26.83847,-0.0,-0.14260574,-0.17298657,0.15806654,2.2390916,3.1335871,6.3881965,0.0,2,0,0,0
426273332,22.590908201769842,113.97502477783766,26.837013,-0.0,-0.14848903,-0.17946513,0.15830891,2.2375422,3.1356149,6.388217,0.0,2,0,0,0
426478148,22.590908010790315,113.975024039157,26.836407,-0.0,-0.14655326,-0.18056117,0.15813696,2.2379804,3.130434,6.388182,0.0,2,0,0,0
426678983,22.590907811686613,113.9750233632794,26.837673,-0.0,-0.14463747,-0.1801163,0.15743464,2.2377477,3.1307456,6.3881755,0.0,2,0,0,0
426884516,22.590907544478263,113.97502259203725,26.841852,-0.0,-0.14435649,-0.18362282,0.15681325,2.23744,3.1317713,6.388194,0.0,2,0,0,0
427085339,22.590907301193283,113.9750219304676,26.851263,-0.0,-0.1435723,-0.18334162,0.15496574,2.2368298,3.1308858,6.388187,0.0,2,0,0,0
427290125,22.590907013015162,113.97502129364945,26.861769,-0.0,-0.1442905,-0.18243746,0.15235499,2.2363384,3.131326,6.3881903,0.0,2,0,0,0
427490956,22.590906703145752,113.97502069057957,26.867296,-0.0,-0.14551412,-0.18160123,0.15223472,2.236139,3.128731,6.3881745,0.0,2,0,0,0
427695732,22.590906386514746,113.97501997114651,26.865786,-0.0,-0.14597352,-0.18506764,0.15462409,2.2356706,3.128007,6.3881307,0.0,2,0,0,0
427896548,22.590906066841193,113.97501926501813,26.863165,-0.0,-0.1459141,-0.18631855,0.15722178,2.2355132,3.1260834,6.3881106,0.0,2,0,0,0
428097314,22.590905775490793,113.97501861502073,26.862717,-0.0,-0.14522061,-0.1873253,0.1583905,2.235539,3.124497,6.3881044,0.0,2,0,0,0
428299002,22.590905493604676,113.9750180367372,26.857346,-0.0,-0.14337493,-0.18500835,0.16137943,2.2356367,3.1228628,6.388098,0.0,2,0,0,0
428499739,22.5909051418997,113.97501754486562,26.851442,-0.0,-0.14561105,-0.17867717,0.16420469,2.2354972,3.121448,6.3880925,0.0,2,0,0,0
428704547,22.590904788945757,113.97501705741347,26.852837,-0.0,-0.14645223,-0.17300893,0.1642052,2.2353873,3.1208205,6.3881006,0.0,2,0,0,0
428905314,22.59090444403346,113.97501668100169,26.86009,-0.0,-0.14709908,-0.1641959,0.16280356,2.235315,3.120568,6.3880496,0.0,2,0,0,0
429110125,22.590904090606745,113.97501629997774,26.864502,-0.0,-0.14768617,-0.1553788,0.16319486,2.2355478,3.1208198,6.3880568,0.0,2,0,0,0
429310932,22.5909038232312,113.97501595182418,26.872246,-0.0,-0.14371619,-0.14731573,0.16339287,2.2360592,3.1205413,6.3880615,0.0,2,0,0,0
429516546,22.59090358217833,113.97501572624837,26.878326,-0.0,-0.13955805,-0.13526213,0.16341825,2.2366693,3.111607,6.388025,0.0,2,0,0,0
429717324,22.590903345213317,113.9750156568174,26.869509,-0.0,-0.13620868,-0.117594354,0.1673311,2.2374492,3.1109095,6.388029,0.0,2,0,0,0
429922124,22.59090313002857,113.97501553463451,26.862873,-0.0,-0.13156761,-0.1023652,0.17078884,2.2383568,3.1102798,6.388043,0.0,2,0,0,0
430122943,22.59090285727124,113.97501535878001,26.857439,-0.0,-0.13128,-0.09213613,0.17341772,2.2387676,3.110624,6.388001,0.0,2,0,0,0
430327740,22.59090256081463,113.97501522928407,26.857834,-0.0,-0.13018528,-0.07986686,0.17419551,2.2385564,3.1108165,6.388062,0.0,2,0,0,0
430528543,22.590902320987176,113.97501518243324,26.86237,-0.0,-0.12692744,-0.065193295,0.17427574,2.2392502,3.1103692,6.388114,0.0,2,0,0,0
430729323,22.59090206285082,113.97501510401716,26.853977,-0.0,-0.12531148,-0.05232728,0.17745993,2.2395542,3.110131,6.388075,0.0,2,0,0,0
430930959,22.59090178702201,113.9750149952783,26.843472,-0.0,-0.12518018,-0.04137909,0.18101245,2.2393115,3.1102586,6.3880677,0.0,2,0,0,0
431131748,22.59090151485864,113.97501496849247,26.837942,-0.0,-0.12448583,-0.027593259,0.18309858,2.2403445,3.1105695,6.388069,0.0,2,0,0,0
431336560,22.59090127456699,113.97501498099834,26.83524,-0.0,-0.121180184,-0.014184082,0.18430479,2.240246,3.1103108,6.388069,0.0,2,0,0,0
431537315,22.590901089130192,113.97501495086834,26.8368,-0.0,-0.11580867,-0.003905313,0.18443926,2.2401679,3.1107602,6.388091,0.0,2,0,0,0
431742158,22.590900890324615,113.97501493545734,26.837639,-0.0,-0.11269179,0.006679585,0.1843987,2.2401016,3.1097164,6.3880796,0.0,2,0,0,0
431942915,22.590900654551724,113.9750147296075,26.840387,-0.0,-0.110408485,0.007957101,0.18428312,2.239377,3.108857,6.388026,0.0,2,0,0,0
432147714,22.590900422441006,113.97501439770798,26.838524,-0.0,-0.10869675,0.0041129463,0.18551522,2.2385151,3.1081796,6.388037,0.0,2,0,0,0
432349456,22.590900227237537,113.97501404195805,26.820108,-0.0,-0.10669014,-0.00025710475,0.19108208,2.238237,3.1072235,6.388037,0.0,2,0,0,0
432554148,22.590900070843187,113.97501369855134,26.808859,-0.0,-0.10240269,-0.003814525,0.19414467,2.2380097,3.1069918,6.3880086,0.0,2,0,0,0
432754925,22.590899907193045,113.97501341968245,26.801823,-0.0,-0.097718984,-0.005021559,0.1960675,2.237711,3.106117,6.388011,0.0,2,0,0,0
432955731,22.590899723370725,113.97501312136632,26.802853,-0.0,-0.09422343,-0.008303065,0.19595751,2.237245,3.1052494,6.3880134,0.0,2,0,0,0
433160639,22.59089954400183,113.9750129026623,26.800125,-0.0,-0.09241572,-0.0066850656,0.19759387,2.2372546,3.1057374,6.387981,0.0,2,0,0,0
433361332,22.590899362089996,113.9750127939629,26.802069,-0.0,-0.09019075,-0.0016189127,0.19626914,2.2371297,3.1050937,6.388034,0.0,2,0,0,0
433562950,22.590899188971328,113.97501272992673,26.802145,-0.0,-0.08657749,0.0042627323,0.19587916,2.2372496,3.104345,6.3880343,0.0,2,0,0,0
433763715,22.590899027954237,113.9750126521702,26.804857,-0.0,-0.08358473,0.0077615543,0.1944389,2.2363405,3.1034362,6.388084,0.0,2,0,0,0
433968541,22.590898854994226,113.9750125427671,26.812162,-0.0,-0.08148528,0.01014999,0.19186564,2.2352312,3.102803,6.388078,0.0,2,0,0,0
434169374,22.590898651994685,113.9750124741211,26.815245,-0.0,-0.08172371,0.013971177,0.19089152,2.2346582,3.1016958,6.388036,0.0,2,0,0,0
434374148,22.59089841472948,113.97501237131583,26.819445,-0.0,-0.08420023,0.015620802,0.1881818,2.234077,3.1011827,6.388025,0.0,2,0,0,0
434574915,22.59089819791946,113.97501226423974,26.821953,-0.0,-0.08470205,0.015833052,0.18693814,2.2337873,3.100223,6.3880205,0.0,2,0,0,0
434779718,22.590898021269393,113.97501225700802,26.826162,-0.0,-0.0836116,0.020315673,0.18500154,2.2331576,3.1010625,6.387996,0.0,2,0,0,0
434981336,22.590897900453008,113.97501236530573,26.83842,-0.0,-0.080676414,0.02865341,0.18131045,2.2327907,3.1009912,6.387991,0.0,2,0,0,0
435186122,22.590897790704737,113.97501253009668,26.843365,-0.0,-0.07853578,0.038727604,0.17999575,2.2329736,3.1016526,6.388017,0.0,2,0,0,0
435386960,22.590897696853194,113.97501270695916,26.850172,-0.0,-0.0755491,0.046922375,0.17769724,2.232899,3.0987988,6.3879547,0.0,2,0,0,0
435591741,22.590897626518682,113.97501286433487,26.860563,-0.0,-0.07161096,0.054109655,0.17400879,2.232619,3.099034,6.3879623,0.0,2,0,0,0
435792558,22.59089756131084,113.97501307907935,26.868793,-0.0,-0.068482764,0.063746795,0.17088518,2.2321439,3.0996933,6.3879905,0.0,2,0,0,0
435993314,22.590897474590736,113.97501325419542,26.882177,-0.0,-0.06685745,0.070446946,0.16660756,2.2317402,3.0992851,6.3880363,0.0,2,0,0,0
436194968,22.590897342026548,113.97501332340815,26.8905,-0.0,-0.06651985,0.07169121,0.16443102,2.2309887,3.0998974,6.3880405,0.0,2,0,0,0
436395714,22.59089719756447,113.97501338403286,26.890541,-0.0,-0.06786074,0.07222947,0.16439535,2.2297735,3.0992768,6.3880334,0.0,2,0,0,0
436600517,22.59089711208798,113.97501361653164,26.89338,-0.0,-0.06764522,0.08018807,0.16275282,2.2294073,3.100081,6.388045,0.0,2,0,0,0
436801318,22.590897058083357,113.97501398472473,26.89521,-0.0,-0.06531961,0.09278546,0.16161124,2.2298021,3.100839,6.3880486,0.0,2,0,0,0
437006121,22.5908970247805,113.97501435472459,26.894905,-0.0,-0.06283599,0.10365994,0.16176866,2.2299805,3.1000545,6.388041,0.0,2,0,0,0
437206946,22.590897027055515,113.97501473178204,26.900772,-0.0,-0.058500413,0.112637915,0.16047621,2.2296958,3.100119,6.388038,0.0,2,0,0,0
437411732,22.590897045188672,113.97501513171453,26.909576,-0.0,-0.0547407,0.12277988,0.15750699,2.2302065,3.1000307,6.388055,0.0,2,0,0,0
437613343,22.59089704909967,113.97501551336092,26.925081,-0.0,-0.050607976,0.13075402,0.15290795,2.2300553,3.0991795,6.3880486,0.0,2,0,0,0
437818123,22.590897068639386,113.97501592602913,26.924543,-0.0,-0.04529533,0.13876747,0.1536795,2.2298656,3.0988533,6.3880606,0.0,2,0,0,0
438018975,22.590897115030305,113.97501642020448,26.91454,-0.0,-0.040606245,0.1495147,0.15742038,2.2302291,3.0990167,6.3880496,0.0,2,0,0,0
438223779,22.590897167521344,113.97501699758465,26.907427,-0.0,-0.035284337,0.1634111,0.1604795,2.230677,3.0991514,6.3880134,0.0,2,0,0,0
438424555,22.590897200873705,113.97501760527832,26.908094,-0.0,-0.03184557,0.17785452,0.16052486,2.230663,3.0990322,6.388003,0.0,2,0,0,0
438625314,22.590897229028638,113.97501820514339,26.903225,-0.0,-0.029142488,0.19208609,0.1628486,2.2305028,3.0986478,6.3880005,0.0,2,0,0,0
438826929,22.590897270458015,113.97501885585609,26.894659,-0.0,-0.025166892,0.20581934,0.16624644,2.2300324,3.099257,6.3880067,0.0,2,0,0,0
439027732,22.590897318206185,113.9750194402056,26.892748,-0.0,-0.020066641,0.21519892,0.16730274,2.2299552,3.0988648,6.388006,0.0,2,0,0,0
439232537,22.59089735932248,113.97501989366106,26.890575,-0.0,-0.0132851675,0.21649092,0.1670189,2.2293181,3.098823,6.3879743,0.0,2,0,0,0
439433315,22.590897430598385,113.97502038585547,26.879593,-0.0,-0.009344757,0.22150902,0.17131215,2.2277207,3.0988047,6.3880196,0.0,2,0,0,0
439638163,22.590897473166265,113.97502081014001,26.858084,-0.0,-0.0062939893,0.22473828,0.1771984,2.2257547,3.0984437,6.3880672,0.0,2,0,0,0
439838975,22.59089750275557,113.97502108985194,26.849741,-0.0,-0.0036589976,0.22095586,0.17751859,2.219449,3.0984807,6.3880277,0.0,2,0,0,0
440043714,22.590897534073083,113.9750214477013,26.839249,-0.0,-0.0023019256,0.22508198,0.17947184,2.2229464,3.0986679,6.3880167,0.0,2,0,0,0
440245332,22.59089760004434,113.97502184719487,26.83781,-0.0,-0.00071949395,0.22487651,0.17872886,2.2240136,3.098858,6.3880177,0.0,2,0,0,0
440450143,22.590897625857814,113.97502217784267,26.829643,-0.0,0.005512428,0.22725512,0.17872205,2.2124577,3.0990381,6.3880324,0.0,2,0,0,0
440650915,22.590897706994628,113.97502243893405,26.818882,-0.0,-0.0020791306,0.22264141,0.1805997,2.2156992,3.098786,6.388027,0.0,2,0,0,0
440855739,22.590897770898888,113.97502260010907,26.817026,-0.0,0.0068219914,0.21146251,0.18061025,2.2172546,3.100459,6.3879995,0.0,2,0,0,0
441056528,22.590897828248522,113.9750229734531,26.813295,-0.0,0.008919407,0.21034612,0.17518611,2.2200124,3.1023154,6.3879986,0.0,2,0,0,0
441257332,22.59089786941414,113.97502357094473,26.815813,-0.0,0.02240773,0.23764923,0.18709517,2.2174556,3.10427,6.388007,0.0,2,0,0,0
441459006,22.590897844632114,113.97502397735424,26.833405,-0.0,-0.032244124,0.18541387,-0.021914117,2.2159262,3.1057005,6.3880153,0.0,2,0,0,0
441659739,22.590897769168773,113.97502407291158,26.885971,-0.0,-0.06215794,0.11914612,-0.04695979,2.2541618,3.106206,6.388019,0.0,2,0,0,0
441864516,22.590897478651513,113.97502426117444,26.916182,-0.0,-0.013317808,0.25364277,0.10749876,2.3089197,3.1051154,6.387965,0.0,2,0,0,0
442065367,22.590897295063037,113.97502473059835,26.927195,-0.0,-0.048684884,0.24974546,0.14528425,2.303855,3.1071196,6.3879757,0.0,2,0,0,0
442270151,22.590897213694745,113.97502511128795,26.93876,-0.0,-0.03799228,0.23808587,0.11927735,2.293754,3.1080234,6.387999,0.0,2,0,0,0
442470924,22.590897110942823,113.97502525142492,26.941801,-0.0,-0.069960274,0.2335381,0.104863726,2.2919707,3.1093457,6.3879557,0.0,2,0,0,0
442675714,22.590897022753936,113.97502523653411,26.937359,-0.0,-0.08334976,0.22780675,0.09281894,2.291563,3.1104288,6.3879704,0.0,2,0,0,0
442877335,22.59089696655576,113.97502516131816,26.934067,-0.0,-0.09895033,0.21897186,0.0972578,2.2906027,3.1110325,6.3879766,0.0,2,0,0,0
443082121,22.590896976843375,113.97502503350121,26.944021,-0.0,-0.07161204,0.24842565,0.14204553,2.2826142,3.1121151,6.387992,0.0,2,0,0,0
443282957,22.590896914019797,113.97502511569115,26.943712,-0.0,-0.1728761,0.2649368,0.15983543,2.2740526,3.113682,6.38795,0.0,2,0,0,0
443487732,22.590896803304492,113.9750251949503,26.938253,-0.0,-0.11352494,0.24329314,0.20079817,2.259667,3.1143937,6.387955,0.0,2,0,0,0
443688555,22.59089684832947,113.97502506387279,26.949316,-0.0,-0.10992567,0.17952397,0.05789635,2.2425797,3.11535,6.3879795,0.0,2,0,0,0
443889415,22.590896775074608,113.97502517575153,26.96338,-0.0,-0.15053095,0.17654765,0.017372184,2.2380383,3.1169517,6.387981,0.0,2,0,0,0
444094146,22.590896763491905,113.9750251361928,26.98605,-0.0,-0.12426938,0.14015089,0.029822106,2.2362955,3.1183455,6.387991,0.0,2,0,0,0
444295732,22.590896361330884,113.97502512370332,27.00513,-0.0,-0.13786168,0.14064035,0.045289535,2.2218733,3.119168,6.387951,0.0,2,0,0,0
444500550,22.59089601466042,113.97502487680146,27.0127,-0.0,-0.15631554,0.1303159,0.037208576,2.2090654,3.122403,6.3879848,0.0,2,0,0,0
444701314,22.59089579715567,113.97502450397536,27.02885,-0.0,-0.15050556,0.1324038,0.045168236,2.2402737,3.1253119,6.387999,0.0,2,0,0,0
444906121,22.59089557259668,113.97502423996482,27.045795,-0.0,-0.1506103,0.06336741,-0.07468028,2.2340858,3.128117,6.387963,0.0,2,0,0,0
445106914,22.59089572178011,113.9750236563863,27.096304,-0.0,-0.13517064,0.009252245,-0.073426634,2.2429724,3.1277375,6.3879685,0.0,2,0,0,0
445311718,22.59089585198783,113.97502319875292,27.125666,-0.0,-0.16311075,0.092274204,0.08455031,2.2479286,3.1232672,6.387972,0.0,2,0,0,0
445513332,22.59089585622891,113.97502288275211,27.131334,-0.0,-0.19795346,0.14152993,0.20630862,2.2324953,3.124476,6.387991,0.0,2,0,0,0
445718139,22.590895986421657,113.97502264938944,27.142962,-0.0,-0.17712155,0.06113266,0.057506423,2.233824,3.1241646,6.3879943,0.0,2,0,0,0
445919005,22.590896238869515,113.97502235144711,27.160559,-0.0,-0.18120722,0.04635725,0.043446913,2.2343853,3.1215215,6.387987,0.0,2,0,0,0
446123724,22.590896464095266,113.97502209327253,27.171743,-0.0,-0.1484842,0.026285827,0.041054264,2.2331972,3.1104827,6.38799,0.0,2,0,0,0
446324532,22.590896622080496,113.97502202461949,27.156593,-0.0,-0.14624251,0.02665557,0.043844372,2.2516758,3.1101649,6.387983,0.0,2,0,0,0
446529340,22.59089675347183,113.97502193420613,27.139198,-0.0,-0.17578423,0.0025901417,0.093697384,2.380459,3.110629,6.3879547,0.0,2,0,0,0
446730142,22.59089683424409,113.97502186039519,27.121014,-0.0,-0.16095978,0.010749201,0.06929407,2.283947,3.1111226,6.3880076,0.0,2,0,0,0
446935760,22.5908970275135,113.97502208986789,27.113863,-0.0,-0.1380441,0.023068734,0.075672135,2.2591357,3.1104958,6.388006,0.0,2,0,0,0
447136521,22.59089737592929,113.97502226135406,27.113974,-0.0,-0.12108551,0.024245769,0.08131444,2.2615242,3.1113074,6.387959,0.0,2,0,0,0
447341410,22.590897628776055,113.97502253684159,27.123413,-0.0,-0.10973956,0.031801134,0.08399026,2.2650595,3.1130016,6.387984,0.0,2,0,0,0
447542158,22.590897870001537,113.97502290065238,27.132624,-0.0,-0.099276856,0.040312238,0.08825263,2.2654152,3.1133235,6.3880343,0.0,2,0,0,0
447746914,22.590898123161356,113.97502325127691,27.13585,-0.0,-0.08894433,0.048470326,0.09338498,2.2672462,3.1149614,6.388039,0.0,2,0,0,0
447947732,22.590898316362107,113.97502320491135,27.13915,-0.0,-0.080430456,0.04094414,0.09803799,2.2683463,3.1147316,6.3880324,0.0,2,0,0,0
448152562,22.5908986077392,113.97502316905438,27.14751,-0.0,-0.06894157,0.033687975,0.10108176,2.2687964,3.1153495,6.3879976,0.0,2,0,0,0
448354128,22.59089887483379,113.9750231367413,27.150007,-0.0,-0.058465544,0.026486984,0.10547333,2.2697732,3.1156096,6.3880043,0.0,2,0,0,0
448558984,22.590899173766864,113.97502317044072,27.15534,-0.0,-0.0486095,0.023966735,0.108329326,2.2712135,3.1156561,6.387994,0.0,2,0,0,0
448759714,22.59089953939805,113.97502342235649,27.156656,-0.0,-0.03505676,0.028860407,0.112842254,2.2734668,3.1160722,6.3879943,0.0,2,0,0,0
448964522,22.590899971684436,113.97502385873804,27.153584,-0.0,-0.022119552,0.039057482,0.12620853,2.274705,3.1169949,6.387964,0.0,2,0,0,0
449169314,22.590900407172068,113.97502447895373,27.140343,-0.0,0.033926558,0.039438214,0.11473649,2.2581215,3.117674,6.388025,0.0,2,0,0,0
449370956,22.59090091780787,113.97502516205141,27.118284,-0.0,0.014486381,0.100879416,0.13079439,2.2859042,3.1178498,6.38807,0.0,2,0,0,0
449570943,22.590901418116363,113.97502583868834,27.099634,-0.0,0.02147548,0.09274513,0.14781791,2.2888532,3.1174197,6.3880105,0.0,2,0,0,0
449776528,22.590902026828765,113.9750263673202,27.092522,-0.0,0.13328697,0.09619222,-0.049147476,2.2827764,3.1176696,6.3880143,0.0,2,0,0,0
449981350,22.590902656087486,113.97502693862971,27.141104,-0.0,0.1542337,0.13322747,-0.04871479,2.2404618,3.1180055,6.388012,0.0,2,0,0,0
450182150,22.59090319572392,113.97502721589497,27.18934,-0.0,0.094412856,0.075056955,0.07236527,2.2263217,3.1167946,6.3879538,0.0,2,0,0,0
450386920,22.59090367440008,113.97502788682826,27.229935,-0.0,0.080312,0.12678915,0.1268855,2.2239623,3.1170125,6.3879695,0.0,2,0,0,0
450587757,22.590904187972328,113.97502898988867,27.26489,-0.0,0.08806248,0.17134397,0.08409595,2.2218626,3.1164813,6.387966,0.0,2,0,0,0
450792545,22.59090473559691,113.97503044866193,27.29823,-0.0,0.10664784,0.26383525,0.049031578,2.2176676,3.116291,6.387964,0.0,2,0,0,0
450994146,22.590905269227694,113.975031924689,27.33852,-0.0,0.09300881,0.28144225,0.0772769,2.212693,3.1159964,6.387922,0.0,2,0,0,0
451199100,22.59090577554413,113.97503330021915,27.37452,-0.0,0.09305155,0.34007198,0.08748864,2.2064028,3.1157463,6.38792,0.0,2,0,0,0
451399723,22.59090631626129,113.97503469593974,27.40677,-0.0,0.060775246,0.44496542,0.16355853,2.2041273,3.115672,6.387934,0.0,2,0,0,0
451604541,22.59090686686511,113.97503603190071,27.417934,-0.0,0.21239467,0.41558728,0.19122513,2.188076,3.1152115,6.3879695,0.0,2,0,0,0
451805370,22.590907468833098,113.97503713201934,27.44955,-0.0,0.13964017,0.38449436,0.024352156,2.1814795,3.1144414,6.3879614,0.0,2,0,0,0
452010139,22.59090804706103,113.97503813526853,27.484413,-0.0,0.18675484,0.35694328,-0.01628317,2.1896036,3.1146667,6.3879714,0.0,2,0,0,0
452210934,22.590908641082763,113.97503890247854,27.505005,-0.0,0.23149897,0.38524395,-0.0081581725,2.2151961,3.114768,6.3879657,0.0,2,0,0,0
452412518,22.590909105554957,113.97503951735177,27.502909,-0.0,0.19287248,0.36626378,0.040727664,2.2057142,3.115233,6.3879566,0.0,2,0,0,0
452613367,22.590909567229012,113.97503979229418,27.495176,-0.0,0.20812309,0.3851568,0.04274232,2.2095952,3.1133988,6.3879466,0.0,2,0,0,0
452818167,22.590910247457312,113.97503969294212,27.493921,-0.0,0.21840727,0.36996412,0.06219239,2.2109318,3.114434,6.387916,0.0,2,0,0,0
453022942,22.590911004982217,113.97503961299319,27.498135,-0.0,0.25143707,0.3323488,0.06324678,2.2125623,3.1160517,6.3879704,0.0,2,0,0,0
453223745,22.590911603241278,113.97503950417236,27.492455,-0.0,0.2480708,0.33251405,0.07665668,2.1901991,3.1151016,6.387961,0.0,2,0,0,0
453428526,22.590912173220612,113.97503943930239,27.497826,-0.0,0.31900758,0.33635214,0.02112568,2.2330556,3.1161685,6.3879733,0.0,2,0,0,0
453629324,22.59091273305491,113.97503945005538,27.502832,-0.0,0.32874125,0.2614982,0.15251914,2.184794,3.117115,6.3879695,0.0,2,0,0,0
453834925,22.590913019869795,113.97503956983181,27.483578,-0.0,0.25829569,0.29052415,0.15026401,2.1645472,3.1182637,6.387978,0.0,2,0,0,0
454035759,22.590913070359715,113.97503999002154,27.472748,-0.0,0.20386215,0.3345915,0.25792593,2.1594365,3.1192245,6.387927,0.0,2,0,0,0
454240543,22.590913175061246,113.97504043885212,27.464106,-0.0,0.2579171,0.27585122,0.11765867,2.1996481,3.1204054,6.387928,0.0,2,0,0,0
454441340,22.590913359654333,113.97504084389149,27.454302,-0.0,0.25656834,0.27180427,0.13038306,2.193465,3.1218736,6.387928,0.0,2,0,0,0
454646159,22.590913592466666,113.97504127975469,27.425137,-0.0,0.25694093,0.2752702,0.14760463,2.1983242,3.123536,6.3879857,0.0,2,0,0,0
454846914,22.590913893511214,113.97504192378986,27.368086,-0.0,0.26726335,0.2741785,0.17019625,2.202869,3.125475,6.3879232,0.0,2,0,0,0
