timestamp,time_utc_usec,lat,lon,alt,alt_ellipsoid,s_variance_m_s,c_variance_rad,eph,epv,hdop,vdop,noise_per_ms,jamming_indicator,vel_m_s,vel_n_m_s,vel_e_m_s,vel_d_m_s,cog_rad,timestamp_time_relative,fix_type,vel_ned_valid,satellites_used
17575471,0,0,0,-17000,0,23.833,3.1415925,4294967.5,3750000.2,99.99,99.99,93,8,0.0,0.0,0.0,0.0,0.0,0,0,0,0
17775471,0,0,0,-17000,0,24.166,3.1415925,4294967.5,3750000.2,99.99,99.99,93,8,0.0,0.0,0.0,0.0,0.0,0,0,0,0
17975465,0,0,0,-17000,0,24.495,3.1415925,4294967.5,3750000.2,99.99,99.99,93,8,0.0,0.0,0.0,0.0,0.0,0,0,0,0
18175469,0,0,0,-17000,0,24.819,3.1415925,4294967.5,3750000.2,99.99,99.99,93,8,0.0,0.0,0.0,0.0,0.0,0,0,0,0
18376465,0,0,0,-17000,0,25.140001,3.1415925,4294967.5,3750000.2,99.99,99.99,93,8,0.0,0.0,0.0,0.0,0.0,0,0,0,0
18575471,0,0,0,-17000,0,25.456001,3.1415925,4294967.5,3750000.2,99.99,99.99,93,8,0.0,0.0,0.0,0.0,0.0,0,0,0,0
18776472,0,0,0,-17000,0,25.768002,3.1415925,4294967.5,3750000.2,99.99,99.99,93,8,0.0,0.0,0.0,0.0,0.0,0,0,0,0
18977513,0,0,0,-17000,0,26.077002,3.1415925,4294967.5,3750000.2,99.99,99.99,93,8,0.0,0.0,0.0,0.0,0.0,0,0,0,0
19177384,0,0,0,-17000,0,26.382002,3.1415925,4294967.5,3750000.2,99.99,99.99,93,7,0.0,0.0,0.0,0.0,0.0,0,0,0,0
19376558,0,0,0,-17000,0,26.683,3.1415925,4294967.5,3750000.2,99.99,99.99,93,7,0.0,0.0,0.0,0.0,0.0,0,0,0,0
19574467,0,0,0,-17000,0,26.981,3.1415925,4294967.5,3750000.2,99.99,99.99,93,7,0.0,0.0,0.0,0.0,0.0,0,0,0,0
19775631,0,0,0,-17000,0,27.276001,3.1415925,4294967.5,3750000.2,99.99,99.99,93,7,0.0,0.0,0.0,0.0,0.0,0,0,0,0
19974472,0,0,0,-17000,0,27.568,3.1415925,4294967.5,3750000.2,99.99,99.99,93,7,0.0,0.0,0.0,0.0,0.0,0,0,0,0
20176465,0,0,0,-17000,0,27.857002,3.1415925,4294967.5,3750000.2,99.99,99.99,93,7,0.0,0.0,0.0,0.0,0.0,0,0,0,0
20375465,0,0,0,-17000,0,28.142002,3.1415925,4294967.5,3750000.2,99.99,99.99,93,7,0.0,0.0,0.0,0.0,0.0,0,0,0,0
20574465,0,0,0,-17000,0,28.425001,3.1415925,4294967.5,3750000.2,99.99,99.99,93,7,0.0,0.0,0.0,0.0,0.0,0,0,0,0
20776627,0,0,0,-17000,0,28.705002,3.1415925,4294967.5,3750000.2,99.99,99.99,93,7,0.0,0.0,0.0,0.0,0.0,0,0,0,0
20975465,0,0,0,-17000,0,28.983002,3.1415925,4294967.5,3750000.2,99.99,99.99,93,7,0.0,0.0,0.0,0.0,0.0,0,0,0,0
21175956,0,0,0,-17000,0,29.257002,3.1415925,4294967.5,3750000.2,99.99,99.99,93,10,0.0,0.0,0.0,0.0,0.0,0,0,0,0
21375822,0,0,0,-17000,0,29.53,3.1415925,4294967.5,3750000.2,99.99,99.99,93,10,0.0,0.0,0.0,0.0,0.0,0,0,0,0
21575467,0,0,0,-17000,0,29.799002,3.1415925,4294967.5,3750000.2,99.99,99.99,93,10,0.0,0.0,0.0,0.0,0.0,0,0,0,0
21775472,0,0,0,-17000,0,30.067001,3.1415925,4294967.5,3750000.2,99.99,99.99,93,10,0.0,0.0,0.0,0.0,0.0,0,0,0,0
21976602,0,0,0,-17000,0,30.332,3.1415925,4294967.5,3750000.2,99.99,99.99,93,10,0.0,0.0,0.0,0.0,0.0,0,0,0,0
22177462,0,0,0,-17000,0,30.594002,3.1415925,4294967.5,3750000.2,99.99,99.99,93,7,0.0,0.0,0.0,0.0,0.0,0,0,0,0
22376982,0,0,0,-17000,0,30.854002,3.1415925,4294967.5,3750000.2,99.99,99.99,93,7,0.0,0.0,0.0,0.0,0.0,0,0,0,0
22576538,0,0,0,-17000,0,31.113,3.1415925,4294967.5,3750000.2,99.99,99.99,93,7,0.0,0.0,0.0,0.0,0.0,0,0,0,0
22777565,0,0,0,-17000,0,31.369001,3.1415925,4294967.5,3750000.2,99.99,99.99,93,7,0.0,0.0,0.0,0.0,0.0,0,0,0,0
22977284,0,0,0,-17000,0,31.623001,3.1415925,4294967.5,3750000.2,99.99,99.99,93,7,0.0,0.0,0.0,0.0,0.0,0,0,0,0
23176468,0,0,0,-17000,0,31.875002,3.1415925,4294967.5,3750000.2,99.99,99.99,93,9,0.0,0.0,0.0,0.0,0.0,0,0,0,0
23376466,0,0,0,-17000,0,32.125,3.1415925,4294967.5,3750000.2,99.99,99.99,93,9,0.0,0.0,0.0,0.0,0.0,0,0,0,0
23575467,0,0,0,-17000,0,32.373,3.1415925,4294967.5,3750000.2,99.99,99.99,93,9,0.0,0.0,0.0,0.0,0.0,0,0,0,0
23775469,0,0,0,-17000,0,32.619003,3.1415925,4294967.5,3750000.2,99.99,99.99,93,9,0.0,0.0,0.0,0.0,0.0,0,0,0,0
23975837,0,0,0,-17000,0,32.863003,3.1415925,4294967.5,3750000.2,99.99,99.99,93,9,0.0,0.0,0.0,0.0,0.0,0,0,0,0
24175465,0,0,0,-17000,0,33.106003,3.1415925,4294967.5,3750000.2,99.99,99.99,93,11,0.0,0.0,0.0,0.0,0.0,0,0,0,0
24376469,0,0,0,-17000,0,33.347,3.1415925,4294967.5,3750000.2,99.99,99.99,93,11,0.0,0.0,0.0,0.0,0.0,0,0,0,0
24576466,0,0,0,-17000,0,33.586002,3.1415925,4294967.5,3750000.2,99.99,99.99,93,11,0.0,0.0,0.0,0.0,0.0,0,0,0,0
24777383,0,0,0,-17000,0,33.823,3.1415925,4294967.5,3750000.2,99.99,99.99,93,11,0.0,0.0,0.0,0.0,0.0,0,0,0,0
24974531,0,0,0,-17000,0,34.059002,3.1415925,4294967.5,3750000.2,99.99,99.99,93,11,0.0,0.0,0.0,0.0,0.0,0,0,0,0
25174559,0,0,0,-17000,0,34.293003,3.1415925,4294967.5,3750000.2,99.99,99.99,93,10,0.0,0.0,0.0,0.0,0.0,0,0,0,0
25374531,0,0,0,-17000,0,34.525,3.1415925,4294967.5,3750000.2,99.99,99.99,93,10,0.0,0.0,0.0,0.0,0.0,0,0,0,0
25575470,0,0,0,-17000,0,34.756,3.1415925,4294967.5,3750000.2,99.99,99.99,93,10,0.0,0.0,0.0,0.0,0.0,0,0,0,0
25774565,0,0,0,-17000,0,34.986,3.1415925,4294967.5,3750000.2,99.99,99.99,93,10,0.0,0.0,0.0,0.0,0.0,0,0,0,0
25974469,0,0,0,-17000,0,35.214,3.1415925,4294967.5,3750000.2,99.99,99.99,93,10,0.0,0.0,0.0,0.0,0.0,0,0,0,0
26174466,0,0,0,-17000,0,35.440002,3.1415925,4294967.5,3750000.2,99.99,99.99,93,7,0.0,0.0,0.0,0.0,0.0,0,0,0,0
26376597,0,0,0,-17000,0,35.665,3.1415925,4294967.5,3750000.2,99.99,99.99,93,7,0.0,0.0,0.0,0.0,0.0,0,0,0,0
26574465,0,0,0,-17000,0,35.889,3.1415925,4294967.5,3750000.2,99.99,99.99,93,7,0.0,0.0,0.0,0.0,0.0,0,0,0,0
26775653,0,0,0,-17000,0,36.111,3.1415925,4294967.5,3750000.2,99.99,99.99,93,7,0.0,0.0,0.0,0.0,0.0,0,0,0,0
26976574,0,0,0,-17000,0,36.332,3.1415925,4294967.5,3750000.2,99.99,99.99,93,7,0.0,0.0,0.0,0.0,0.0,0,0,0,0
27177532,0,0,0,-17000,0,36.551003,3.1415925,4294967.5,3750000.2,99.99,99.99,93,12,0.0,0.0,0.0,0.0,0.0,0,0,0,0
27376534,0,0,0,-17000,0,36.77,3.1415925,4294967.5,3750000.2,99.99,99.99,93,12,0.0,0.0,0.0,0.0,0.0,0,0,0,0
27576468,0,0,0,-17000,0,36.986,3.1415925,4294967.5,3750000.2,99.99,99.99,93,12,0.0,0.0,0.0,0.0,0.0,0,0,0,0
27774470,0,0,0,-17000,0,37.202003,3.1415925,4294967.5,3750000.2,99.99,99.99,93,12,0.0,0.0,0.0,0.0,0.0,0,0,0,0
27974466,0,0,0,-17000,0,37.417004,3.1415925,4294967.5,3750000.2,99.99,99.99,93,12,0.0,0.0,0.0,0.0,0.0,0,0,0,0
28176492,0,0,0,-17000,0,37.63,3.1415925,4294967.5,3750000.2,99.99,99.99,93,13,0.0,0.0,0.0,0.0,0.0,0,0,0,0
28374503,0,0,0,-17000,0,37.842003,3.1415925,4294967.5,3750000.2,99.99,99.99,93,13,0.0,0.0,0.0,0.0,0.0,0,0,0,0
28575499,0,0,0,-17000,0,38.053,3.1415925,4294967.5,3750000.2,99.99,99.99,93,13,0.0,0.0,0.0,0.0,0.0,0,0,0,0
28774881,0,0,0,-17000,0,38.262,3.1415925,4294967.5,3750000.2,99.99,99.99,93,13,0.0,0.0,0.0,0.0,0.0,0,0,0,0
28974466,0,0,0,-17000,0,38.471,3.1415925,4294967.5,3750000.2,99.99,99.99,93,13,0.0,0.0,0.0,0.0,0.0,0,0,0,0
29175536,0,0,0,-17000,0,38.678,3.1415925,4294967.5,3750000.2,99.99,99.99,93,17,0.0,0.0,0.0,0.0,0.0,0,0,0,0
29375657,0,0,0,-17000,0,38.884003,3.1415925,4294967.5,3750000.2,99.99,99.99,93,17,0.0,0.0,0.0,0.0,0.0,0,0,0,0
29574475,0,0,0,-17000,0,39.09,3.1415925,4294967.5,3750000.2,99.99,99.99,93,17,0.0,0.0,0.0,0.0,0.0,0,0,0,0
29775472,0,0,0,-17000,0,39.294003,3.1415925,4294967.5,3750000.2,99.99,99.99,93,17,0.0,0.0,0.0,0.0,0.0,0,0,0,0
29975473,0,0,0,-17000,0,39.497,3.1415925,4294967.5,3750000.2,99.99,99.99,93,17,0.0,0.0,0.0,0.0,0.0,0,0,0,0
30176568,0,0,0,-17000,0,39.699,3.1415925,4294967.5,3750000.2,99.99,99.99,93,14,0.0,0.0,0.0,0.0,0.0,0,0,0,0
30378466,0,0,0,-17000,0,39.9,3.1415925,4294967.5,3750000.2,99.99,99.99,93,14,0.0,0.0,0.0,0.0,0.0,0,0,0,0
30575468,0,0,0,-17000,0,40.100002,3.1415925,4294967.5,3750000.2,99.99,99.99,93,14,0.0,0.0,0.0,0.0,0.0,0,0,0,0
30776464,0,0,0,-17000,0,40.299004,3.1415925,4294967.5,3750000.2,99.99,99.99,93,14,0.0,0.0,0.0,0.0,0.0,0,0,0,0
30975536,0,0,0,-17000,0,40.497,3.1415925,4294967.5,3750000.2,99.99,99.99,93,14,0.0,0.0,0.0,0.0,0.0,0,0,0,0
31175480,0,0,0,-17000,0,40.694,3.1415925,4294967.5,3750000.2,99.99,99.99,93,19,0.0,0.0,0.0,0.0,0.0,0,0,0,0
31376565,0,0,0,-17000,0,40.890003,3.1415925,4294967.5,3750000.2,99.99,99.99,93,19,0.0,0.0,0.0,0.0,0.0,0,0,0,0
31577619,0,0,0,-17000,0,41.085003,3.1415925,4294967.5,3750000.2,99.99,99.99,93,19,0.0,0.0,0.0,0.0,0.0,0,0,0,0
31778018,0,0,0,-17000,0,41.280003,3.1415925,4294967.5,3750000.2,99.99,99.99,93,19,0.0,0.0,0.0,0.0,0.0,0,0,0,0
31976677,0,0,0,-17000,0,41.473003,3.1415925,4294967.5,3750000.2,99.99,99.99,93,19,0.0,0.0,0.0,0.0,0.0,0,0,0,0
32176466,0,0,0,-17000,0,41.665,3.1415925,4294967.5,3750000.2,99.99,99.99,93,15,0.0,0.0,0.0,0.0,0.0,0,0,0,0
32376836,0,0,0,-17000,0,41.857002,3.1415925,4294967.5,3750000.2,99.99,99.99,93,15,0.0,0.0,0.0,0.0,0.0,0,0,0,0
32576468,0,0,0,-17000,0,42.048,3.1415925,4294967.5,3750000.2,99.99,99.99,93,15,0.0,0.0,0.0,0.0,0.0,0,0,0,0
32775845,0,0,0,-17000,0,42.237003,3.1415925,4294967.5,3750000.2,99.99,99.99,93,15,0.0,0.0,0.0,0.0,0.0,0,0,0,0
32975526,0,0,0,-17000,0,42.426003,3.1415925,4294967.5,3750000.2,99.99,99.99,93,15,0.0,0.0,0.0,0.0,0.0,0,0,0,0
33175472,0,0,0,-17000,0,42.615,3.1415925,4294967.5,3750000.2,99.99,99.99,93,8,0.0,0.0,0.0,0.0,0.0,0,0,0,0
33376678,0,0,0,-17000,0,42.802002,3.1415925,4294967.5,3750000.2,99.99,99.99,93,8,0.0,0.0,0.0,0.0,0.0,0,0,0,0
33575536,0,0,0,-17000,0,42.988003,3.1415925,4294967.5,3750000.2,99.99,99.99,93,8,0.0,0.0,0.0,0.0,0.0,0,0,0,0
33775636,0,0,0,-17000,0,43.174004,3.1415925,4294967.5,3750000.2,99.99,99.99,93,8,0.0,0.0,0.0,0.0,0.0,0,0,0,0
33976530,0,0,0,-17000,0,43.359,3.1415925,4294967.5,3750000.2,99.99,99.99,93,8,0.0,0.0,0.0,0.0,0.0,0,0,0,0
34176280,0,0,0,-17000,0,43.543003,3.1415925,4294967.5,3750000.2,99.99,99.99,93,13,0.0,0.0,0.0,0.0,0.0,0,0,0,0
34375647,0,0,0,-17000,0,43.726,3.1415925,4294967.5,3750000.2,99.99,99.99,93,13,0.0,0.0,0.0,0.0,0.0,0,0,0,0
34574507,0,0,0,-17000,0,43.909,3.1415925,4294967.5,3750000.2,99.99,99.99,93,13,0.0,0.0,0.0,0.0,0.0,0,0,0,0
34775467,0,0,0,-17000,0,44.091003,3.1415925,4294967.5,3750000.2,99.99,99.99,93,13,0.0,0.0,0.0,0.0,0.0,0,0,0,0
34974468,0,0,0,-17000,0,44.272003,3.1415925,4294967.5,3750000.2,99.99,99.99,93,13,0.0,0.0,0.0,0.0,0.0,0,0,0,0
35176536,0,0,0,-17000,0,44.452003,3.1415925,4294967.5,3750000.2,99.99,99.99,93,15,0.0,0.0,0.0,0.0,0.0,0,0,0,0
35377466,0,0,0,-17000,0,44.632004,3.1415925,4294967.5,3750000.2,99.99,99.99,93,15,0.0,0.0,0.0,0.0,0.0,0,0,0,0
35578529,0,0,0,-17000,0,44.811,3.1415925,4294967.5,3750000.2,99.99,99.99,93,15,0.0,0.0,0.0,0.0,0.0,0,0,0,0
35777580,0,0,0,-17000,0,44.989002,3.1415925,4294967.5,3750000.2,99.99,99.99,93,15,0.0,0.0,0.0,0.0,0.0,0,0,0,0
35977538,0,0,0,-17000,0,45.166,3.1415925,4294967.5,3750000.2,99.99,99.99,93,15,0.0,0.0,0.0,0.0,0.0,0,0,0,0
36178531,0,0,0,-17000,0,45.343002,3.1415925,4294967.5,3750000.2,99.99,99.99,100,22,0.0,0.0,0.0,0.0,0.0,0,0,0,0
36377679,0,0,0,-17000,0,45.519,3.1415925,4294967.5,3750000.2,99.99,99.99,100,22,0.0,0.0,0.0,0.0,0.0,0,0,0,0
36577512,0,0,0,-17000,0,45.695004,3.1415925,4294967.5,3750000.2,99.99,99.99,100,22,0.0,0.0,0.0,0.0,0.0,0,0,0,0
36778574,0,0,0,-17000,0,45.869003,3.1415925,4294967.5,3750000.2,99.99,99.99,100,22,0.0,0.0,0.0,0.0,0.0,0,0,0,0
36978956,0,0,0,-17000,0,46.043003,3.1415925,4294967.5,3750000.2,99.99,99.99,100,22,0.0,0.0,0.0,0.0,0.0,0,0,0,0
37178466,0,0,0,-17000,0,46.217003,3.1415925,4294967.5,3750000.2,99.99,99.99,100,26,0.0,0.0,0.0,0.0,0.0,0,0,0,0
37378466,0,0,0,-17000,0,46.390003,3.1415925,4294967.5,3750000.2,99.99,99.99,100,26,0.0,0.0,0.0,0.0,0.0,0,0,0,0
37578538,0,0,0,-17000,0,46.562004,3.1415925,4294967.5,3750000.2,99.99,99.99,100,26,0.0,0.0,0.0,0.0,0.0,0,0,0,0
37780466,0,0,0,-17000,0,46.733,3.1415925,4294967.5,3750000.2,99.99,99.99,100,26,0.0,0.0,0.0,0.0,0.0,0,0,0,0
37978528,0,0,0,-17000,0,46.904003,3.1415925,4294967.5,3750000.2,99.99,99.99,100,26,0.0,0.0,0.0,0.0,0.0,0,0,0,0
38177574,0,0,0,-17000,0,47.074,3.1415925,4294967.5,3750000.2,99.99,99.99,100,10,0.0,0.0,0.0,0.0,0.0,0,0,0,0
38377465,0,0,0,-17000,0,47.244003,3.1415925,4294967.5,3750000.2,99.99,99.99,100,10,0.0,0.0,0.0,0.0,0.0,0,0,0,0
38576466,0,0,0,-17000,0,47.413002,3.1415925,4294967.5,3750000.2,99.99,99.99,100,10,0.0,0.0,0.0,0.0,0.0,0,0,0,0
38778464,0,0,0,-17000,0,47.582,3.1415925,4294967.5,3750000.2,99.99,99.99,100,10,0.0,0.0,0.0,0.0,0.0,0,0,0,0
38976598,0,0,0,-17000,0,47.749,3.1415925,4294967.5,3750000.2,99.99,99.99,100,10,0.0,0.0,0.0,0.0,0.0,0,0,0,0
39177465,0,0,0,-17000,0,47.917004,3.1415925,4294967.5,3750000.2,99.99,99.99,100,22,0.0,0.0,0.0,0.0,0.0,0,0,0,0
39378497,0,0,0,-17000,0,48.083004,3.1415925,4294967.5,3750000.2,99.99,99.99,100,22,0.0,0.0,0.0,0.0,0.0,0,0,0,0
39578167,0,0,0,-17000,0,48.249,3.1415925,4294967.5,3750000.2,99.99,99.99,100,22,0.0,0.0,0.0,0.0,0.0,0,0,0,0
39777471,0,0,0,-17000,0,48.415,3.1415925,4294967.5,3750000.2,99.99,99.99,100,22,0.0,0.0,0.0,0.0,0.0,0,0,0,0
39977631,0,0,0,-17000,0,48.58,3.1415925,4294967.5,3750000.2,99.99,99.99,100,22,0.0,0.0,0.0,0.0,0.0,0,0,0,0
40177695,0,0,0,-17000,0,48.744003,3.1415925,4294967.5,3750000.2,99.99,99.99,100,13,0.0,0.0,0.0,0.0,0.0,0,0,0,0
40377467,0,0,0,-17000,0,48.908,3.1415925,4294967.5,3750000.2,99.99,99.99,100,13,0.0,0.0,0.0,0.0,0.0,0,0,0,0
40578466,0,0,0,-17000,0,49.071003,3.1415925,4294967.5,3750000.2,99.99,99.99,100,13,0.0,0.0,0.0,0.0,0.0,0,0,0,0
40778640,0,0,0,-17000,0,49.234,3.1415925,4294967.5,3750000.2,99.99,99.99,100,13,0.0,0.0,0.0,0.0,0.0,0,0,0,0
40977467,0,0,0,-17000,0,49.396004,3.1415925,4294967.5,3750000.2,99.99,99.99,100,13,0.0,0.0,0.0,0.0,0.0,0,0,0,0
41177468,0,0,0,-17000,0,49.558002,3.1415925,4294967.5,3750000.2,99.99,99.99,100,23,0.0,0.0,0.0,0.0,0.0,0,0,0,0
41378464,0,0,0,-17000,0,49.719,3.1415925,4294967.5,3750000.2,99.99,99.99,100,23,0.0,0.0,0.0,0.0,0.0,0,0,0,0
41577470,0,0,0,-17000,0,49.88,3.1415925,4294967.5,3750000.2,99.99,99.99,100,23,0.0,0.0,0.0,0.0,0.0,0,0,0,0
41777534,0,0,0,-17000,0,50.04,3.1415925,4294967.5,3750000.2,99.99,99.99,100,23,0.0,0.0,0.0,0.0,0.0,0,0,0,0
41977543,0,0,0,-17000,0,50.2,3.1415925,4294967.5,3750000.2,99.99,99.99,100,23,0.0,0.0,0.0,0.0,0.0,0,0,0,0
42178190,0,0,0,-17000,0,50.359,3.1415925,4294967.5,3750000.2,99.99,99.99,100,15,0.0,0.0,0.0,0.0,0.0,0,0,0,0
42377468,0,0,0,-17000,0,50.517002,3.1415925,4294967.5,3750000.2,99.99,99.99,100,15,0.0,0.0,0.0,0.0,0.0,0,0,0,0
42579470,0,0,0,-17000,0,50.675003,3.1415925,4294967.5,3750000.2,99.99,99.99,100,15,0.0,0.0,0.0,0.0,0.0,0,0,0,0
42780531,0,0,0,-17000,0,50.833004,3.1415925,4294967.5,3750000.2,99.99,99.99,100,15,0.0,0.0,0.0,0.0,0.0,0,0,0,0
42985465,0,0,0,-17000,0,51.000004,3.1415925,4294967.5,3750000.2,99.99,99.99,100,15,0.0,0.0,0.0,0.0,0.0,0,0,0,0
43184503,0,0,0,-17000,0,51.156002,3.1415925,4294967.5,3750000.2,99.99,99.99,100,14,0.0,0.0,0.0,0.0,0.0,0,0,0,0
43384536,0,0,0,-17000,0,51.313004,3.1415925,4294967.5,3750000.2,99.99,99.99,100,14,0.0,0.0,0.0,0.0,0.0,0,0,0,0
43584507,0,0,0,-17000,0,51.468002,3.1415925,4294967.5,3750000.2,99.99,99.99,100,14,0.0,0.0,0.0,0.0,0.0,0,0,0,0
43785596,0,0,0,-17000,0,51.623,3.1415925,4294967.5,3750000.2,99.99,99.99,100,14,0.0,0.0,0.0,0.0,0.0,0,0,0,0
43985059,0,0,0,-17000,0,51.778004,3.1415925,4294967.5,3750000.2,99.99,99.99,100,14,0.0,0.0,0.0,0.0,0.0,0,0,0,0
44184697,0,0,0,-17000,0,51.932003,3.1415925,4294967.5,3750000.2,99.99,99.99,100,15,0.0,0.0,0.0,0.0,0.0,0,0,0,0
44386535,0,0,0,-17000,0,52.086002,3.1415925,4294967.5,3750000.2,99.99,99.99,100,15,0.0,0.0,0.0,0.0,0.0,0,0,0,0
44587468,0,0,0,-17000,0,52.24,3.1415925,4294967.5,3750000.2,99.99,99.99,100,15,0.0,0.0,0.0,0.0,0.0,0,0,0,0
44786326,0,0,0,-17000,0,52.393,3.1415925,4294967.5,3750000.2,99.99,99.99,100,15,0.0,0.0,0.0,0.0,0.0,0,0,0,0
44984533,0,0,0,-17000,0,52.545002,3.1415925,4294967.5,3750000.2,99.99,99.99,100,15,0.0,0.0,0.0,0.0,0.0,0,0,0,0
45185522,0,0,0,-17000,0,52.697002,3.1415925,4294967.5,3750000.2,99.99,99.99,100,19,0.0,0.0,0.0,0.0,0.0,0,0,0,0
45385638,0,0,0,-17000,0,52.849003,3.1415925,4294967.5,3750000.2,99.99,99.99,100,19,0.0,0.0,0.0,0.0,0.0,0,0,0,0
45586465,0,0,0,-17000,0,53.000004,3.1415925,4294967.5,3750000.2,99.99,99.99,100,19,0.0,0.0,0.0,0.0,0.0,0,0,0,0
45786469,0,0,0,-17000,0,53.15,3.1415925,4294967.5,3750000.2,99.99,99.99,100,19,0.0,0.0,0.0,0.0,0.0,0,0,0,0
45987530,0,0,0,-17000,0,53.301003,3.1415925,4294967.5,3750000.2,99.99,99.99,100,19,0.0,0.0,0.0,0.0,0.0,0,0,0,0
46188465,0,0,0,-17000,0,53.451004,3.1415925,4294967.5,3750000.2,99.99,99.99,100,18,0.0,0.0,0.0,0.0,0.0,0,0,0,0
46388233,0,0,0,-17000,0,53.600002,3.1415925,4294967.5,3750000.2,99.99,99.99,100,18,0.0,0.0,0.0,0.0,0.0,0,0,0,0
46587465,0,0,0,-17000,0,53.749004,3.1415925,4294967.5,3750000.2,99.99,99.99,100,18,0.0,0.0,0.0,0.0,0.0,0,0,0,0
46787538,0,0,0,-17000,0,53.898003,3.1415925,4294967.5,3750000.2,99.99,99.99,100,18,0.0,0.0,0.0,0.0,0.0,0,0,0,0
46988542,0,0,0,-17000,0,54.046,3.1415925,4294967.5,3750000.2,99.99,99.99,100,18,0.0,0.0,0.0,0.0,0.0,0,0,0,0
47187533,0,0,0,-17000,0,54.194004,3.1415925,4294967.5,3750000.2,99.99,99.99,100,15,0.0,0.0,0.0,0.0,0.0,0,0,0,0
47387504,0,0,0,-17000,0,54.341003,3.1415925,4294967.5,3750000.2,99.99,99.99,100,15,0.0,0.0,0.0,0.0,0.0,0,0,0,0
47587480,0,0,0,-17000,0,54.488003,3.1415925,4294967.5,3750000.2,99.99,99.99,100,15,0.0,0.0,0.0,0.0,0.0,0,0,0,0
47784509,0,0,0,-17000,0,54.635002,3.1415925,4294967.5,3750000.2,99.99,99.99,100,15,0.0,0.0,0.0,0.0,0.0,0,0,0,0
47986041,0,0,0,-17000,0,54.781002,3.1415925,4294967.5,3750000.2,99.99,99.99,100,15,0.0,0.0,0.0,0.0,0.0,0,0,0,0
48185468,0,0,0,-17000,0,54.927002,3.1415925,4294967.5,3750000.2,99.99,99.99,100,24,0.0,0.0,0.0,0.0,0.0,0,0,0,0
48387466,0,0,0,-17000,0,55.072002,3.1415925,4294967.5,3750000.2,99.99,99.99,100,24,0.0,0.0,0.0,0.0,0.0,0,0,0,0
48587522,0,0,0,-17000,0,55.218002,3.1415925,4294967.5,3750000.2,99.99,99.99,100,24,0.0,0.0,0.0,0.0,0.0,0,0,0,0
48787502,0,0,0,-17000,0,55.362003,3.1415925,4294967.5,3750000.2,99.99,99.99,100,24,0.0,0.0,0.0,0.0,0.0,0,0,0,0
48987507,0,0,0,-17000,0,55.507004,3.1415925,4294967.5,3750000.2,99.99,99.99,100,24,0.0,0.0,0.0,0.0,0.0,0,0,0,0
49187505,0,0,0,-17000,0,55.65,3.1415925,4294967.5,3750000.2,99.99,99.99,100,16,0.0,0.0,0.0,0.0,0.0,0,0,0,0
49387469,0,0,0,-17000,0,55.794003,3.1415925,4294967.5,3750000.2,99.99,99.99,100,16,0.0,0.0,0.0,0.0,0.0,0,0,0,0
49588580,0,0,0,-17000,0,55.937004,3.1415925,4294967.5,3750000.2,99.99,99.99,100,16,0.0,0.0,0.0,0.0,0.0,0,0,0,0
49787468,0,0,0,-17000,0,56.08,3.1415925,4294967.5,3750000.2,99.99,99.99,100,16,0.0,0.0,0.0,0.0,0.0,0,0,0,0
49987525,0,0,0,-17000,0,56.223003,3.1415925,4294967.5,3750000.2,99.99,99.99,100,16,0.0,0.0,0.0,0.0,0.0,0,0,0,0
50188580,0,0,0,-17000,0,56.365,3.1415925,4294967.5,3750000.2,99.99,99.99,100,18,0.0,0.0,0.0,0.0,0.0,0,0,0,0
50388528,0,0,0,-17000,0,56.506004,3.1415925,4294967.5,3750000.2,99.99,99.99,100,18,0.0,0.0,0.0,0.0,0.0,0,0,0,0
50587510,0,0,0,-17000,0,56.648003,3.1415925,4294967.5,3750000.2,99.99,99.99,100,18,0.0,0.0,0.0,0.0,0.0,0,0,0,0
50787478,0,0,0,-17000,0,56.789,3.1415925,4294967.5,3750000.2,99.99,99.99,100,18,0.0,0.0,0.0,0.0,0.0,0,0,0,0
50986532,0,0,0,-17000,0,56.930004,3.1415925,4294967.5,3750000.2,99.99,99.99,100,18,0.0,0.0,0.0,0.0,0.0,0,0,0,0
51189001,0,0,0,-17000,0,57.070004,3.1415925,4294967.5,3750000.2,99.99,99.99,100,12,0.0,0.0,0.0,0.0,0.0,0,0,0,0
51385536,0,0,0,-17000,0,57.210003,3.1415925,4294967.5,3750000.2,99.99,99.99,100,12,0.0,0.0,0.0,0.0,0.0,0,0,0,0
51587782,0,0,0,-17000,0,57.350002,3.1415925,4294967.5,3750000.2,99.99,99.99,100,12,0.0,0.0,0.0,0.0,0.0,0,0,0,0
51787630,0,0,0,-17000,0,57.489002,3.1415925,4294967.5,3750000.2,99.99,99.99,100,12,0.0,0.0,0.0,0.0,0.0,0,0,0,0
51987616,0,0,0,-17000,0,57.628002,3.1415925,4294967.5,3750000.2,99.99,99.99,100,12,0.0,0.0,0.0,0.0,0.0,0,0,0,0
52188539,0,0,0,-17000,0,57.767002,3.1415925,4294967.5,3750000.2,99.99,99.99,100,18,0.0,0.0,0.0,0.0,0.0,0,0,0,0
52387468,0,0,0,-17000,0,57.905003,3.1415925,4294967.5,3750000.2,99.99,99.99,100,18,0.0,0.0,0.0,0.0,0.0,0,0,0,0
52586569,0,0,0,-17000,0,58.043003,3.1415925,4294967.5,3750000.2,99.99,99.99,100,18,0.0,0.0,0.0,0.0,0.0,0,0,0,0
52788462,0,0,0,-17000,0,58.181004,3.1415925,4294967.5,3750000.2,99.99,99.99,100,18,0.0,0.0,0.0,0.0,0.0,0,0,0,0
52986506,0,0,0,-17000,0,58.318005,3.1415925,4294967.5,3750000.2,99.99,99.99,100,18,0.0,0.0,0.0,0.0,0.0,0,0,0,0
53186610,0,0,0,-17000,0,58.455,3.1415925,4294967.5,3750000.2,99.99,99.99,100,20,0.0,0.0,0.0,0.0,0.0,0,0,0,0
53389522,0,0,0,-17000,0,58.592003,3.1415925,4294967.5,3750000.2,99.99,99.99,100,20,0.0,0.0,0.0,0.0,0.0,0,0,0,0
53589466,0,0,0,-17000,0,58.728004,3.1415925,4294967.5,3750000.2,99.99,99.99,100,20,0.0,0.0,0.0,0.0,0.0,0,0,0,0
53790465,0,0,0,-17000,0,58.864002,3.1415925,4294967.5,3750000.2,99.99,99.99,100,20,0.0,0.0,0.0,0.0,0.0,0,0,0,0
53989479,0,0,0,-17000,0,59.000004,3.1415925,4294967.5,3750000.2,99.99,99.99,100,20,0.0,0.0,0.0,0.0,0.0,0,0,0,0
54189468,0,0,0,-17000,0,59.135002,3.1415925,4294967.5,3750000.2,99.99,99.99,100,18,0.0,0.0,0.0,0.0,0.0,0,0,0,0
54393463,0,0,0,-17000,0,59.270004,3.1415925,4294967.5,3750000.2,99.99,99.99,100,18,0.0,0.0,0.0,0.0,0.0,0,0,0,0
54592470,0,0,0,-17000,0,59.405003,3.1415925,4294967.5,3750000.2,99.99,99.99,100,18,0.0,0.0,0.0,0.0,0.0,0,0,0,0
54791633,0,0,0,-17000,0,59.540005,3.1415925,4294967.5,3750000.2,99.99,99.99,100,18,0.0,0.0,0.0,0.0,0.0,0,0,0,0
54990468,0,0,0,-17000,0,59.674004,3.1415925,4294967.5,3750000.2,99.99,99.99,100,18,0.0,0.0,0.0,0.0,0.0,0,0,0,0
55190466,0,0,0,-17000,0,59.808002,3.1415925,4294967.5,3750000.2,99.99,99.99,100,18,0.0,0.0,0.0,0.0,0.0,0,0,0,0
55391772,0,0,0,-17000,0,59.941,3.1415925,4294967.5,3750000.2,99.99,99.99,100,18,0.0,0.0,0.0,0.0,0.0,0,0,0,0
55590565,0,0,0,-17000,0,60.075005,3.1415925,4294967.5,3750000.2,99.99,99.99,100,18,0.0,0.0,0.0,0.0,0.0,0,0,0,0
55791476,0,0,0,-17000,0,60.208004,3.1415925,4294967.5,3750000.2,99.99,99.99,100,18,0.0,0.0,0.0,0.0,0.0,0,0,0,0
55992502,0,0,0,-17000,0,60.340004,3.1415925,4294967.5,3750000.2,99.99,99.99,100,18,0.0,0.0,0.0,0.0,0.0,0,0,0,0
56193469,0,0,0,-17000,0,60.473003,3.1415925,4294967.5,3750000.2,99.99,99.99,100,19,0.0,0.0,0.0,0.0,0.0,0,0,0,0
56393463,0,0,0,-17000,0,60.605003,3.1415925,4294967.5,3750000.2,99.99,99.99,100,19,0.0,0.0,0.0,0.0,0.0,0,0,0,0
56594361,0,0,0,-17000,0,60.737003,3.1415925,4294967.5,3750000.5,99.99,99.99,100,19,0.0,0.0,0.0,0.0,0.0,0,0,0,0
56793466,0,0,0,-17000,0,60.869003,3.1415925,4294967.5,3750000.5,99.99,99.99,100,19,0.0,0.0,0.0,0.0,0.0,0,0,0,0
56993531,0,0,0,-17000,0,61.000004,3.1415925,4294967.5,3750000.5,99.99,99.99,100,19,0.0,0.0,0.0,0.0,0.0,0,0,0,0
57194517,0,0,0,-17000,0,61.131004,3.1415925,4294967.5,3750000.5,99.99,99.99,100,28,0.0,0.0,0.0,0.0,0.0,0,0,0,0
57393523,0,0,0,-17000,0,61.262,3.1415925,4294967.5,3750000.5,99.99,99.99,100,28,0.0,0.0,0.0,0.0,0.0,0,0,0,0
57593466,0,0,0,-17000,0,61.392002,3.1415925,4294967.5,3750000.5,99.99,99.99,100,28,0.0,0.0,0.0,0.0,0.0,0,0,0,0
57794569,0,0,0,-17000,0,61.522003,3.1415925,4294967.5,3750000.5,99.99,99.99,100,28,0.0,0.0,0.0,0.0,0.0,0,0,0,0
57992570,0,0,0,-17000,0,61.652004,3.1415925,4294967.5,3750000.5,99.99,99.99,100,28,0.0,0.0,0.0,0.0,0.0,0,0,0,0
58190468,0,0,0,-17000,0,61.782,3.1415925,4294967.5,3750000.5,99.99,99.99,100,29,0.0,0.0,0.0,0.0,0.0,0,0,0,0
58390466,0,0,0,-17000,0,61.911003,3.1415925,4294967.5,3750000.5,99.99,99.99,100,29,0.0,0.0,0.0,0.0,0.0,0,0,0,0
58591468,0,0,0,-17000,0,62.040005,3.1415925,4294967.5,3750000.5,99.99,99.99,100,29,0.0,0.0,0.0,0.0,0.0,0,0,0,0
58791539,0,0,0,-17000,0,62.169003,3.1415925,4294967.5,3750000.5,99.99,99.99,100,29,0.0,0.0,0.0,0.0,0.0,0,0,0,0
58990466,0,0,0,-17000,0,62.297005,3.1415925,4294967.5,3750000.5,99.99,99.99,100,29,0.0,0.0,0.0,0.0,0.0,0,0,0,0
59190466,0,0,0,-17000,0,62.426003,3.1415925,4294967.5,3750000.5,99.99,99.99,100,21,0.0,0.0,0.0,0.0,0.0,0,0,0,0
59392554,0,0,0,-17000,0,62.554005,3.1415925,4294967.5,3750000.5,99.99,99.99,100,21,0.0,0.0,0.0,0.0,0.0,0,0,0,0
59590467,0,0,0,-17000,0,62.682003,3.1415925,4294967.5,3750000.5,99.99,99.99,100,21,0.0,0.0,0.0,0.0,0.0,0,0,0,0
59791469,0,0,0,-17000,0,62.809002,3.1415925,4294967.5,3750000.5,99.99,99.99,100,21,0.0,0.0,0.0,0.0,0.0,0,0,0,0
59992535,0,0,0,-17000,0,62.936005,3.1415925,4294967.5,3750000.5,99.99,99.99,100,21,0.0,0.0,0.0,0.0,0.0,0,0,0,0
60193630,0,0,0,-17000,0,63.063004,3.1415925,4294967.5,3750000.5,99.99,99.99,101,18,0.0,0.0,0.0,0.0,0.0,0,0,0,0
60394465,0,0,0,-17000,0,63.190002,3.1415925,4294967.5,3750000.5,99.99,99.99,101,18,0.0,0.0,0.0,0.0,0.0,0,0,0,0
60593868,0,0,0,-17000,0,63.316,3.1415925,4294967.5,3750000.5,99.99,99.99,101,18,0.0,0.0,0.0,0.0,0.0,0,0,0,0
60792465,0,0,0,-17000,0,63.443005,3.1415925,4294967.5,3750000.5,99.99,99.99,101,18,0.0,0.0,0.0,0.0,0.0,0,0,0,0
60990561,0,0,0,-17000,0,63.569004,3.1415925,4294967.5,3750000.5,99.99,99.99,101,18,0.0,0.0,0.0,0.0,0.0,0,0,0,0
61191622,0,0,0,-17000,0,63.694004,3.1415925,4294967.5,3750000.5,99.99,99.99,101,17,0.0,0.0,0.0,0.0,0.0,0,0,0,0
61391625,0,0,0,-17000,0,63.820004,3.1415925,4294967.5,3750000.5,99.99,99.99,101,17,0.0,0.0,0.0,0.0,0.0,0,0,0,0
61592543,0,0,0,-17000,0,63.945004,3.1415925,4294967.5,3750000.5,99.99,99.99,101,17,0.0,0.0,0.0,0.0,0.0,0,0,0,0
61793413,0,0,0,-17000,0,64.07,3.1415925,4294967.5,3750000.5,99.99,99.99,101,17,0.0,0.0,0.0,0.0,0.0,0,0,0,0
61990537,0,0,0,-17000,0,64.195,3.1415925,4294967.5,3750000.5,99.99,99.99,101,17,0.0,0.0,0.0,0.0,0.0,0,0,0,0
62192469,0,0,0,-17000,0,64.319,3.1415925,4294967.5,3750000.5,99.99,99.99,101,19,0.0,0.0,0.0,0.0,0.0,0,0,0,0
62393037,0,0,0,-17000,0,64.444,3.1415925,4294967.5,3750000.5,99.99,99.99,101,19,0.0,0.0,0.0,0.0,0.0,0,0,0,0
62594569,0,0,0,-17000,0,64.568,3.1415925,4294967.5,3750000.5,99.99,99.99,101,19,0.0,0.0,0.0,0.0,0.0,0,0,0,0
62793467,0,0,0,-17000,0,64.691,3.1415925,4294967.5,3750000.5,99.99,99.99,101,19,0.0,0.0,0.0,0.0,0.0,0,0,0,0
62994466,0,0,0,-17000,0,64.815,3.1415925,4294967.5,3750000.5,99.99,99.99,101,19,0.0,0.0,0.0,0.0,0.0,0,0,0,0
63193469,0,0,0,-17000,0,64.938,3.1415925,4294967.5,3750000.5,99.99,99.99,101,20,0.0,0.0,0.0,0.0,0.0,0,0,0,0
63403629,1557478450199991,-21289090,1544863336,-30553,29264,65.061005,3.1415925,4294967.5,3750000.5,99.99,99.99,101,20,0.0,0.0,0.0,0.0,0.0,0,0,0,0
63597542,1557478450399991,-20998825,1542933820,-31577,28472,65.184006,3.1415925,4294967.5,3750000.5,99.99,99.99,101,20,0.0,0.0,0.0,0.0,0.0,0,0,0,0
63795489,1557478450599990,-20836822,1541894155,-32139,28034,65.30701,3.1415925,4294967.5,3750000.5,99.99,99.99,101,20,0.0,0.0,0.0,0.0,0.0,0,0,0,0
63996487,1557478450799990,-20973819,1542931515,-31642,28404,65.429,3.1415925,4294967.5,3750000.2,99.99,99.99,101,20,0.0,0.0,0.0,0.0,0.0,0,0,0,0
64195864,1557478450999991,-20545168,1540037084,-33139,27255,65.551,3.1415925,4294967.5,3750000.5,99.99,99.99,101,21,0.0,0.0,0.0,0.0,0.0,0,0,0,0
64398608,1557478451199990,-20532927,1540035901,-33170,27223,65.673004,3.1415925,4294967.5,3750000.5,99.99,99.99,101,21,0.0,0.0,0.0,0.0,0.0,0,0,0,0
64597690,1557478451399990,-20672819,1541093335,-32668,27595,65.795006,3.1415925,4294967.5,3750000.5,99.99,99.99,101,21,0.0,0.0,0.0,0.0,0.0,0,0,0,0
64800515,1557478451599990,-20660483,1541092163,-32699,27562,65.916,3.1415925,4294967.5,3750000.5,99.99,99.99,101,21,0.0,0.0,0.0,0.0,0.0,0,0,0,0
64999523,1557478451799990,-20397278,1539343353,-33607,26864,66.038,3.1415925,4294967.5,3750000.5,99.99,99.99,101,21,0.0,0.0,0.0,0.0,0.0,0,0,0,0
65199642,1557478451999991,-20532235,1540367648,-33125,27221,66.159004,3.1415925,4294967.5,3750000.5,99.99,99.99,101,23,0.0,0.0,0.0,0.0,0.0,0,0,0,0
65405622,1557478452199990,220386507,1300194553,2952908,2989298,66.28001,3.1415925,4294967.5,3750000.5,99.99,99.99,101,23,0.0,0.0,0.0,0.0,0.0,0,0,0,0
65605482,1557478452399990,216057360,1303784338,2841319,2878457,66.4,3.1415925,4294967.5,3750000.8,99.99,99.99,101,23,0.0,0.0,0.0,0.0,0.0,0,0,0,0
65804917,1557478452599990,222762927,1295934947,3015458,3050890,66.520004,3.1415925,4294967.5,3750000.2,99.99,99.99,101,23,0.0,0.0,0.0,0.0,0.0,0,0,0,0
66004551,1557478452799990,222774914,1295940056,3015770,3051202,66.64101,3.1415925,4294967.5,3750000.5,99.99,99.99,101,23,0.0,0.0,0.0,0.0,0.0,0,0,0,0
66204615,1557478452999991,218532801,1299523485,2905190,2941621,66.761,3.1415925,4294967.5,3750000.8,99.99,99.99,101,21,0.0,0.0,0.0,0.0,0.0,0,0,0,0
66402545,1557478453199990,218544729,1299528429,2905496,2941927,66.880005,3.1415925,4294967.5,3750000.8,99.99,99.99,101,21,0.0,0.0,0.0,0.0,0.0,0,0,0,0
66604551,1557478453399989,218556656,1299533372,2905802,2942233,67.0,3.1415925,4294967.5,3750000.8,99.99,99.99,101,21,0.0,0.0,0.0,0.0,0.0,0,0,0,0
66804487,1557478453599989,207875426,1310551387,2635309,2673847,67.119,3.1415925,4294967.5,3750000.5,99.99,99.99,101,21,0.0,0.0,0.0,0.0,0.0,0,0,0,0
67004753,1557478453799989,176357300,1344241922,1901042,1947933,67.23801,3.1415925,4294967.5,3750000.5,99.99,99.99,101,21,0.0,0.0,0.0,0.0,0.0,0,0,0,0
67205099,1557478453999990,176369556,1344245441,1901307,1948195,67.357,3.1415925,4294967.5,3750000.5,99.99,99.99,101,19,0.0,0.0,0.0,0.0,0.0,0,0,0,0
67404484,1557478454199989,176381812,1344248960,1901571,1948457,67.476006,3.1415925,4294967.5,3750000.5,99.99,99.99,101,19,0.0,0.0,0.0,0.0,0.0,0,0,0,0
67605520,1557478454399989,172907779,1346752399,1827035,1874728,67.594,3.1415925,4294967.5,3750000.5,99.99,99.99,101,19,0.0,0.0,0.0,0.0,0.0,0,0,0,0
67804889,1557478454599989,200211583,1316791330,2448270,2488100,67.712006,3.1415925,4294967.5,3750000.5,99.99,99.99,101,19,0.0,0.0,0.0,0.0,0.0,0,0,0,0
68004486,1557478454799989,192437248,1319057760,2264095,2305649,67.83,3.1415925,4294967.5,3750000.5,99.99,99.99,101,19,0.0,0.0,0.0,0.0,0.0,0,0,0,0
68204490,1557478454999990,192448590,1319061698,2264358,2305911,67.948006,3.1415925,4294967.5,3750000.8,99.99,99.99,101,26,0.0,0.0,0.0,0.0,0.0,0,0,0,0
68402508,1557478455199989,195171085,1315077158,2328507,2369114,68.066,3.1415925,4294967.5,3750000.8,99.99,99.99,101,26,0.0,0.0,0.0,0.0,0.0,0,0,0,0
68603485,1557478455399989,195182303,1315081173,2328771,2369376,68.18301,3.1415925,4294967.5,3750000.5,99.99,99.99,101,26,0.0,0.0,0.0,0.0,0.0,0,0,0,0
68803698,1557478455599989,198546435,1312309531,2408868,2448511,68.301,3.1415925,4294967.5,3750000.5,99.99,99.99,101,26,0.0,0.0,0.0,0.0,0.0,0,0,0,0
69001484,1557478455799989,198557703,1312313668,2409137,2448778,68.41801,3.1415925,4294967.5,3750000.8,99.99,99.99,101,26,0.0,0.0,0.0,0.0,0.0,0,0,0,0
69203495,1557478455999990,195215955,1315093218,2329562,2370162,68.534004,3.1415925,4294967.5,3750000.5,99.99,99.99,101,24,0.0,0.0,0.0,0.0,0.0,0,0,0,0
69403485,1557478456199989,198580235,1312321943,2409674,2449312,68.651,3.1415925,4294967.5,3750000.8,99.99,99.99,101,24,0.0,0.0,0.0,0.0,0.0,0,0,0,0
69603509,1557478456399988,219201776,1293022921,2923592,2958790,68.768005,3.1415925,4294967.5,3750000.8,99.99,99.99,101,24,0.0,0.0,0.0,0.0,0.0,0,0,0,0
69803490,1557478456599988,219213155,1293027809,2923885,2959082,68.884,3.1415925,4294967.5,3750000.5,99.99,99.99,101,24,0.0,0.0,0.0,0.0,0.0,0,0,0,0
70003489,1557478456799988,219224534,1293032697,2924177,2959375,69.0,3.1415925,4294967.5,3750000.8,99.99,99.99,101,24,0.0,0.0,0.0,0.0,0.0,0,0,0,0
70204484,1557478456999989,215426209,1298410964,2825964,2862446,69.116005,3.1415925,4294967.5,3750000.5,99.99,99.99,101,24,0.0,0.0,0.0,0.0,0.0,0,0,0,0
70405519,1557478457199988,215437724,1298415730,2826256,2862737,69.231,3.1415925,4294967.5,3750000.5,99.99,99.99,101,24,0.0,0.0,0.0,0.0,0.0,0,0,0,0
70603607,1557478457399988,196699790,1319781093,2364121,2404931,69.347,3.1415925,4294967.5,3750000.5,99.99,99.99,101,24,0.0,0.0,0.0,0.0,0.0,0,0,0,0
70804487,1557478457599988,203102955,1312595727,2518357,2557498,69.462006,3.1415925,4294967.5,3750000.2,99.99,99.99,101,24,0.0,0.0,0.0,0.0,0.0,0,0,0,0
71003864,1557478457799988,210705375,1304211160,2706277,2743889,69.577,3.1415925,4294967.5,3750000.5,99.99,99.99,101,24,0.0,0.0,0.0,0.0,0.0,0,0,0,0
71203484,1557478457999989,225285907,1285992834,3083470,3116854,69.692,3.1415925,4294967.5,3750000.8,99.99,99.99,101,18,0.0,0.0,0.0,0.0,0.0,0,0,0,0
71469809,1557478458200541,225901127,1139749935,158484,155841,14.221001,0.96194375,6433.2715,1465.0641,99.99,99.99,101,18,0.0,0.0,0.0,0.0,0.0,0,0,0,0
71637577,1557478458399541,225978590,1139816388,29960,27330,1.6420001,3.1415925,3552.5522,1293.932,99.99,99.99,101,18,0.0,0.0,0.0,0.0,0.0,0,0,0,0
71843487,1557478458599541,225979705,1139817137,33460,30830,1.4860001,1.6791769,3552.474,1294.0181,99.99,99.99,101,18,0.0,0.0,0.0,0.0,0.0,0,0,0,0
72046321,1557478458799541,225979010,1139816520,30861,28231,1.6500001,3.1415925,3552.7302,1294.139,99.99,99.99,101,18,0.0,0.0,0.0,0.0,0.0,0,0,0,0
72245487,1557478458999542,225978248,1139815827,33006,30375,2.1920002,2.5266345,3552.6511,1294.2781,99.99,99.99,101,21,0.0,0.0,0.0,0.0,0.0,0,0,0,0
72446484,1557478459199541,225978069,1139815723,29455,26825,1.4230001,3.1415925,3552.7712,1294.7401,99.99,99.99,101,21,0.0,0.0,0.0,0.0,0.0,0,0,0,0
72650484,1557478459399541,225977368,1139815399,26173,23542,1.327,3.1415925,3552.4292,1294.7931,99.99,99.99,101,21,0.0,0.0,0.0,0.0,0.0,0,0,0,0
72846599,1557478459599541,225976916,1139815135,23471,20840,2.052,3.1415925,3552.3901,1294.9021,99.99,99.99,101,21,0.0,0.0,0.0,0.0,0.0,0,0,0,0
73046488,1557478459799541,225976367,1139815049,22438,19807,2.2050002,3.1415925,3552.2903,1294.9741,99.99,99.99,101,21,0.0,0.0,0.0,0.0,0.0,0,0,0,0
73245118,1557478459999542,225976349,1139815046,25128,22497,1.4860001,3.1415925,3552.0403,1294.927,99.99,99.99,101,16,0.0,0.0,0.0,0.0,0.0,0,0,0,0
73438019,1557478460199541,225977793,1139815778,30725,28094,1.317,3.1415925,3551.642,1294.677,99.99,99.99,101,16,0.0,0.0,0.0,0.0,0.0,0,0,0,0
73640643,1557478460399541,225979433,1139816846,36448,33818,1.9290001,2.1547859,3551.476,1294.64,99.99,99.99,101,16,0.0,0.0,0.0,0.0,0.0,0,0,0,0
73839487,1557478460599541,225980129,1139817255,40532,37902,1.7290001,3.1415925,3551.404,1294.723,99.99,99.99,101,16,0.0,0.0,0.0,0.0,0.0,0,0,0,0
74039643,1557478460799541,225981271,1139817918,45603,42973,2.0400002,3.0455883,3551.3281,1294.81,99.99,99.99,101,16,0.0,0.0,0.0,0.0,0.0,0,0,0,0
74235662,1557478460999542,225980673,1139817431,45047,42417,1.5020001,3.1415925,3551.2542,1294.93,99.99,99.99,101,24,0.0,0.0,0.0,0.0,0.0,0,0,0,0
74440550,1557478461199541,225980618,1139817222,48407,45777,2.9740002,1.5461626,3551.1143,1295.015,99.99,99.99,101,24,0.0,0.0,0.0,0.0,0.0,0,0,0,0
74637509,1557478461399541,225979849,1139816621,48031,45400,2.433,0.991551,3551.0312,1295.0791,99.99,99.99,101,24,0.0,0.0,0.0,0.0,0.0,0,0,0,0
74840487,1557478461599541,225980623,1139817084,51225,48595,1.667,3.1415925,3551.5542,1295.6221,99.99,99.99,101,24,0.0,0.0,0.0,0.0,0.0,0,0,0,0
75047796,1557478461799541,225981736,1139817707,54791,52161,2.638,3.0782268,3551.3862,1295.633,99.99,99.99,101,24,0.0,0.0,0.0,0.0,0.0,0,0,0,0
75234488,1557478461999542,225981067,1139817065,56697,54067,1.4940001,3.1415925,3551.2212,1295.64,99.99,99.99,101,26,0.0,0.0,0.0,0.0,0.0,0,0,0,0
75445045,1557478462199541,225980730,1139816922,54363,51733,1.743,3.1415925,3550.9082,1295.489,99.99,99.99,101,26,0.0,0.0,0.0,0.0,0.0,0,0,0,0
75649532,1557478462399541,225981020,1139816978,56905,54275,1.4890001,3.1415925,3550.7742,1295.534,99.99,99.99,101,26,0.0,0.0,0.0,0.0,0.0,0,0,0,0
75846519,1557478462599541,225981012,1139816990,56598,53968,1.5730001,1.9741753,3550.5972,1295.536,99.99,99.99,101,26,0.0,0.0,0.0,0.0,0.0,0,0,0,0
76058484,1557478462799541,225980408,1139816696,53337,50707,1.4670001,3.1415925,3550.6482,1295.5701,99.99,99.99,101,26,0.0,0.0,0.0,0.0,0.0,0,0,0,0
76258833,1557478462999542,225979863,1139816379,51178,48548,1.396,3.1415925,3550.5662,1295.6681,99.99,99.99,101,20,0.0,0.0,0.0,0.0,0.0,0,0,0,0
76460185,1557478463199541,225979977,1139816501,51022,48391,2.6000001,2.5968091,3550.495,1295.7511,99.99,99.99,101,20,0.0,0.0,0.0,0.0,0.0,0,0,0,0
76651487,1557478463399541,225979909,1139816381,51698,49067,1.363,2.344128,3550.412,1295.838,99.99,99.99,101,20,0.0,0.0,0.0,0.0,0.0,0,0,0,0
76855489,1557478463599541,225983013,1139815053,-32144,-34775,2.434,1.5116194,3542.4392,1040.4401,99.99,99.99,101,20,0.0,0.0,0.0,0.0,0.0,0,0,0,0
77054526,1557478463799541,225982838,1139815084,-33977,-36608,1.5120001,3.1415925,3542.3892,1040.467,99.99,99.99,101,20,0.0,0.0,0.0,0.0,0.0,0,0,0,0
77273538,1557478463999542,225983263,1139815333,-32823,-35455,1.8140001,3.1415925,3542.2842,1040.556,99.99,99.99,101,19,0.0,0.0,0.0,0.0,0.0,0,0,0,0
77470484,1557478464199541,225902046,1139743364,57978,55333,7.7420006,0.2580237,6199.5493,701.171,11.66,2.54,101,19,1.863,1.5150001,1.0840001,0.096,0.6208013,0,0,0,4
77630215,1557478464399541,225902146,1139743513,56740,54095,4.655,0.39057255,3164.3062,449.67,11.66,2.54,101,19,1.1860001,0.897,0.77500004,0.07300001,0.6487718,0,0,0,4
77828609,1557478464599541,225902059,1139743551,55637,52992,4.7190003,0.66305,3479.5762,522.812,11.66,2.54,101,19,0.568,0.439,0.36100003,0.17,0.65891135,0,0,0,4
78030486,1557478464799541,225901836,1139743413,55454,52809,4.75,0.6632464,3189.433,503.53104,11.66,2.54,101,19,0.354,0.273,0.22600001,-0.07300001,0.65891135,0,0,0,4
78232729,1557478464999542,225901736,1139743322,55757,53112,4.9410005,0.6547103,2965.2761,489.34402,11.66,2.54,100,26,0.633,0.497,0.393,-0.055000003,0.6642231,0,0,0,4
78428765,1557478465199541,225901635,1139743235,56120,53474,5.8640003,0.64995253,2785.8333,478.463,11.66,2.54,100,26,0.77900004,0.588,0.51100004,-0.066,0.69006336,0,0,0,4
78630487,1557478465399541,225901714,1139743307,56017,53372,5.8890004,0.6502009,2638.0112,469.83902,11.66,2.54,100,26,0.351,0.33100003,0.115,-0.12200001,0.69006336,0,0,0,4
78828873,1557478465599541,225901987,1139743557,55341,52696,7.3310003,0.65051,2513.391,462.816,11.66,2.54,100,26,0.70600003,-0.49800003,-0.50100005,-0.21400002,0.69006336,0,0,0,4
79031521,1557478465799541,225902314,1139743864,54650,52005,7.964,0.44888783,2406.562,456.993,11.66,2.54,100,26,1.6450001,-1.2,-1.126,-0.365,4.8875046,0,0,0,4
79232554,1557478465999542,225902625,1139744153,53930,51285,8.2300005,0.24193944,2313.603,452.07303,11.66,2.54,100,29,2.8100002,-2.0670002,-1.9030001,-0.46500003,4.1109467,0,0,0,4
79426548,1557478466199541,225903061,1139744544,53058,50413,7.872,0.12836233,2231.756,447.86203,11.66,2.54,100,29,3.3030002,-2.5970001,-2.0410001,-0.45100003,3.873917,0,0,0,4
79631489,1557478466399541,225903432,1139744877,52381,49736,7.4760003,0.4836438,2159.018,444.217,11.66,2.54,100,29,1.848,-1.3110001,-1.302,-0.24700001,3.8772533,0,0,0,4
79828750,1557478466599541,225903691,1139745092,51931,49286,7.123,0.5048548,2093.9011,441.04,11.66,2.54,100,29,1.337,-1.102,-0.758,-0.063,3.8133717,0,0,0,4
80033252,1557478466799541,225903906,1139745283,51485,48840,6.5750003,0.5052119,2035.1091,438.239,11.66,2.54,100,29,0.768,-0.68600005,-0.344,0.032,3.8133717,0,0,0,4
80230487,1557478466999542,225904229,1139745577,50908,48263,6.681,0.5055742,1980.9391,435.712,11.66,2.54,100,20,0.586,-0.499,-0.30900002,0.08800001,3.8133717,0,0,0,4
80431534,1557478467199541,225904397,1139745830,50896,48252,3.183,0.50574684,1933.0251,433.6,11.66,2.55,100,20,0.163,0.037,0.15900001,0.323,3.8133717,0,0,0,4
80634488,1557478467399541,225904602,1139746001,50406,47762,1.8770001,0.5058486,1889.0151,431.64703,11.66,2.55,100,20,0.080000006,-0.034,0.07300001,0.060000002,3.8133717,0,0,0,4
80829880,1557478467599541,225904757,1139746094,49994,47349,5.7730002,0.5061615,1848.3861,429.876,11.66,2.55,100,20,0.374,-0.35000002,-0.13000001,0.18200001,3.8133717,0,0,0,4
81021839,1557478467799541,225904990,1139746299,49613,46968,4.006,0.5063785,1811.0731,428.27002,11.66,2.55,100,20,0.31500003,-0.27600002,-0.15100001,0.35000002,3.8133717,0,0,0,4
81224491,1557478467999542,225905126,1139746498,49546,46901,5.7400002,0.71944684,1776.3551,426.80902,11.66,2.55,100,22,0.712,-0.55700004,-0.44400004,0.22200002,3.8136768,0,0,0,4
81421482,1557478468199541,225905250,1139746632,49268,46624,5.2390003,0.7196465,1743.951,425.467,11.66,2.55,100,22,0.87500006,-0.73800004,-0.47000003,0.342,3.8136768,0,0,0,4
81621551,1557478468399541,225905298,1139746629,48897,46252,5.0350003,0.7198383,1713.7301,424.24503,11.66,2.55,100,22,0.96700007,-0.86,-0.44300002,0.388,3.8136768,0,0,0,4
81821486,1557478468599541,225905328,1139746672,48771,46126,5.1930003,0.5849874,1685.3651,423.10803,11.66,2.55,100,22,1.12,-0.94000006,-0.609,0.323,3.7552629,0,0,0,4
82018485,1557478468799541,225905362,1139746641,48470,45825,5.6650004,0.5852528,1657.6401,422.031,11.66,2.55,100,22,1.062,-0.90900004,-0.549,0.363,3.7552629,0,0,0,4
82221492,1557478468999542,225905331,1139746653,48465,45820,6.057,0.5855365,1632.2151,420.98,11.66,2.55,100,16,1.0430001,-0.88400006,-0.554,0.35000002,3.7552629,0,0,0,4
82423670,1557478469199541,225905273,1139746586,48429,45785,7.024,0.42094216,1608.1641,420.049,11.66,2.55,100,16,2.381,-2.0140002,-1.271,0.257,3.721816,0,0,0,4
82628597,1557478469399541,225905211,1139746506,48358,45713,7.491,0.1996297,1585.525,419.20502,11.66,2.55,100,16,3.3700001,-2.6750002,-2.049,0.22000001,3.7817428,0,0,0,4
82822482,1557478469599541,225905148,1139746459,48473,45828,7.813,0.1581064,1564.051,418.39902,11.66,2.55,100,16,4.1740003,-3.2450001,-2.6260002,-0.013,3.8065293,0,0,0,4
83021350,1557478469799541,225905142,1139746466,48474,45829,8.379001,0.33773708,1543.6481,417.64203,11.66,2.55,100,16,2.7570002,-2.2770002,-1.5550001,0.065000005,3.794557,0,0,0,4
83224483,1557478469999542,225905171,1139746490,48374,45729,8.269,0.43075857,1524.2101,416.92902,11.66,2.55,100,18,2.0970001,-1.7350001,-1.179,0.171,3.7731943,0,0,0,4
83441483,1557478470199541,225909565,1139750326,42222,39578,1.034,0.43082437,46.703003,11.1050005,3.12,2.29,100,18,0.312,-0.26900002,-0.158,0.37500003,3.7731943,0,3,1,5
83626481,1557478470399541,225909674,1139750382,41910,39266,0.989,0.43088722,30.586002,9.06,3.12,2.29,100,18,0.158,-0.109000005,0.11400001,0.45100003,3.7731943,0,3,1,5
83815492,1557478470599541,225909727,1139750416,41670,39026,1.0780001,0.4309558,24.745,8.323,3.12,2.29,100,18,0.29900002,-0.105000004,0.28,0.50100005,3.7731943,0,3,1,5
84016481,1557478470799541,225909784,1139750450,41478,38834,1.014,0.43102038,21.332,7.9280005,3.12,2.29,100,18,0.19900002,-0.125,0.155,0.63600004,3.7731943,0,3,1,5
84214565,1557478470999542,225909805,1139750463,41410,38766,0.84300005,0.43107396,18.655,7.6010003,3.12,2.29,100,17,0.37300003,-0.31300002,0.202,0.55200005,3.7731943,0,3,1,5
84415632,1557478471199541,225909831,1139750472,41507,38863,0.78700006,0.43112406,16.744001,7.3890004,3.12,2.29,100,17,0.26000002,-0.26000002,-0.014,0.448,3.7731943,0,3,1,5
84611487,1557478471399541,225909847,1139750473,41601,38957,0.934,0.4311834,15.352001,7.2390003,3.12,2.29,100,17,0.003,-0.003,-0.001,0.439,3.7731943,0,3,1,5
84821519,1557478471599541,225909827,1139750457,41774,39130,0.75000006,0.4312312,14.01,7.0670004,3.12,2.29,100,17,0.16100001,-0.16100001,-0.002,0.25800002,3.7731943,0,3,1,5
85014488,1557478471799541,225909810,1139750445,41929,39285,0.83500004,0.43128428,12.979001,6.939,3.12,2.29,100,17,0.19100001,-0.09900001,0.164,0.33600003,3.7731943,0,3,1,5
85216492,1557478471999542,225909791,1139750430,42031,39387,0.887,0.43134063,12.093,6.839,3.12,2.29,100,21,0.035,0.032,-0.012,0.37300003,3.7731943,0,3,1,5
85428676,1557478472199541,225909757,1139750412,42051,39407,0.69600004,0.43138498,11.165001,6.7000003,3.12,2.29,100,21,0.15200001,-0.11000001,0.105000004,0.23400001,3.7731943,0,3,1,5
85619487,1557478472399541,225909726,1139750400,41967,39323,0.83000004,0.43143767,10.465,6.5880003,3.12,2.29,100,21,0.054,0.052,-0.014,0.298,3.7731943,0,3,1,5
85817524,1557478472599541,225909714,1139750389,41997,39353,0.42900002,0.4314649,10.159,6.5670004,3.12,2.29,100,21,0.263,0.079,-0.25100002,0.194,3.7731943,0,3,1,5
86016600,1557478472799541,225909707,1139750375,42056,39412,0.64400005,0.43150592,9.648001,6.4760003,3.12,2.29,100,21,0.48700002,0.07700001,-0.48100004,-0.162,3.7731943,0,3,1,5
86220000,1557478472999542,225909690,1139750361,42046,39402,1.223,0.75037843,9.268001,6.4020004,3.12,2.29,100,22,1.07,-0.62600005,-0.86700004,-0.597,3.851216,0,3,1,5
86418597,1557478473199541,225909690,1139750341,42337,39693,1.516,0.75043374,9.134001,6.4020004,3.12,2.29,100,22,1.0910001,-0.23900001,-1.065,-0.57100004,3.851216,0,3,1,5
86616489,1557478473399541,225909680,1139750336,41873,39229,1.644,0.7504938,9.057,6.42,3.12,2.29,100,22,0.67600006,0.615,-0.28100002,0.966,3.851216,0,3,1,5
86816484,1557478473599541,225909669,1139750318,41904,39260,3.2530003,0.7506127,9.0130005,6.452,3.12,2.29,100,22,1.046,-0.717,-0.76100004,-0.38900003,3.851216,0,3,1,5
87016647,1557478473799541,225909668,1139750308,41995,39351,4.1060004,0.7507626,9.002001,6.491,3.12,2.29,100,22,0.88600004,-0.63900006,-0.614,-0.11400001,3.851216,0,3,1,5
87214488,1557478473999542,225909677,1139750308,42000,39356,4.2510004,0.7509179,9.025001,6.525,3.12,2.29,100,23,0.35900003,-0.279,-0.22500001,-0.035,3.851216,0,3,1,5
87432556,1557478474199541,225909696,1139750318,42066,39422,1.5220001,0.7509734,9.032001,6.556,3.12,2.29,100,23,0.528,-0.156,0.505,0.37600002,3.851216,0,3,1,5
87617571,1557478474399541,225909698,1139750323,42131,39487,1.192,0.75101703,9.023001,6.5820003,3.12,2.29,100,23,0.40600002,-0.33600003,0.22700001,0.023000002,3.851216,0,3,1,5
87814549,1557478474599541,225909695,1139750329,42142,39498,0.60200006,0.751039,9.011001,6.5990005,3.12,2.29,100,23,0.35700002,-0.208,0.29000002,-0.017,3.851216,0,3,1,5
88016492,1557478474799541,225909695,1139750333,42266,39622,0.95800006,0.75107396,8.937,6.6080003,3.12,2.29,100,23,0.432,-0.33100003,0.277,0.133,3.851216,0,3,1,5
88215689,1557478474999542,225909698,1139750339,42356,39712,0.87700003,0.7511059,8.867001,6.6110005,3.12,2.29,101,24,0.384,-0.22100002,0.31500003,0.147,3.851216,0,3,1,5
88414550,1557478475199541,225909688,1139750339,42375,39731,2.7120001,0.751205,8.794001,6.5990005,3.12,2.29,101,24,0.623,-0.59300005,-0.19000001,-0.102000006,3.851216,0,3,1,5
88618590,1557478475399541,225909689,1139750335,42436,39792,2.8290002,0.75130814,8.725,6.5920005,3.12,2.29,101,24,0.186,-0.149,-0.112,-0.048,3.851216,0,3,1,5
88816698,1557478475599541,225909671,1139750322,42151,39507,2.171,0.7513874,8.705001,6.6120005,3.12,2.29,101,24,0.33800003,0.33200002,-0.060000002,0.21200001,3.851216,0,3,1,5
89016569,1557478475799541,225909646,1139750307,42241,39597,2.765,0.75148827,8.688001,6.629,3.12,2.29,101,24,0.53000003,-0.42000002,-0.323,0.053000003,3.851216,0,3,1,5
89214483,1557478475999542,225909605,1139750295,42175,39531,2.171,0.75156754,8.610001,6.637,3.12,2.29,101,24,0.66800004,-0.66300005,-0.085,-0.18200001,3.851216,0,3,1,5
89439835,1557478476199541,225909529,1139750283,41845,39201,0.54800004,0.75158757,8.405001,6.6050005,2.34,2.1699998,101,24,0.40300003,-0.317,0.24800001,0.028,3.851216,0,3,1,6
89618594,1557478476399541,225909493,1139750287,41891,39247,0.47300002,0.7516047,8.05,6.5460005,2.34,2.1699998,101,24,0.34500003,-0.185,0.291,0.177,3.851216,0,3,1,6
89816293,1557478476599541,225909457,1139750289,41778,39135,0.94400007,0.75163925,7.8940005,6.517,2.34,2.1699998,101,24,0.289,-0.286,0.040000003,0.106000006,3.851216,0,3,1,6
90020579,1557478476799541,225909422,1139750289,41693,39049,0.52000004,0.7516581,7.714,6.4400005,2.34,2.1699998,101,24,0.291,-0.19900002,0.21200001,0.25100002,3.851216,0,3,1,6
90220520,1557478476999542,225909382,1139750294,41356,38712,1.2210001,0.7517026,7.5680003,6.3350005,2.34,2.1699998,101,28,0.41500002,-0.397,-0.123,0.23300001,3.851216,0,3,1,6
90420252,1557478477199541,225909348,1139750312,40781,38137,0.532,0.751722,7.3760004,6.1740003,2.34,2.1699998,101,28,0.15400001,-0.076000005,0.133,0.22800002,3.851216,0,3,1,6
90620993,1557478477399541,225909308,1139750349,39639,36995,1.4940001,0.43840662,7.1470003,5.964,2.34,2.1699998,101,28,0.762,-0.712,-0.27100003,0.045,3.5928571,0,3,1,6
90820491,1557478477599541,225909274,1139750375,38801,36157,1.4430001,0.43849686,6.9740005,5.7580004,2.34,2.1699998,101,28,0.614,-0.61300004,-0.008,0.104,3.5928571,0,3,1,6
91016491,1557478477799541,225909310,1139750405,38668,36024,0.97900003,0.43855792,6.7030005,5.5340004,2.34,2.1699998,101,28,0.14400001,0.13000001,0.063,0.28800002,3.5928571,0,3,1,6
91216557,1557478477999542,225909314,1139750425,38298,35655,1.1340001,0.43862897,6.5650005,5.367,2.34,2.1699998,101,23,0.277,-0.24400002,0.132,-0.001,3.5928571,0,3,1,6
91444488,1557478478199541,225909302,1139750428,38160,35516,0.50600004,0.43866056,6.354,5.314,1.78,2.11,101,23,0.31,-0.163,0.263,0.136,3.5928571,0,3,1,7
91816557,1557478478599541,225909259,1139750419,38224,35580,0.49400002,0.43872637,6.005,5.2380004,1.78,2.11,101,23,0.395,-0.349,0.185,0.358,3.5928571,0,3,1,7
92017489,1557478478799541,225909224,1139750411,38266,35622,0.52400005,0.43876824,5.894,5.227,1.78,2.11,101,23,0.55300003,-0.50200003,0.23300001,0.379,3.5928571,0,3,1,7
92216524,1557478478999542,225909206,1139750412,38180,35536,0.588,0.43882024,5.7590003,5.19,1.78,2.11,101,21,0.794,-0.767,0.20700002,0.245,3.5928571,0,3,1,7
92414529,1557478479199541,225909199,1139750419,38102,35458,0.754,0.4388674,5.5740004,5.138,1.78,2.11,101,21,0.683,-0.633,-0.25800002,0.32000002,3.5928571,0,3,1,7
92614486,1557478479399541,225909189,1139750425,37985,35341,0.59900004,0.43892393,5.4170003,5.104,1.78,2.11,101,21,0.855,-0.81700003,0.252,0.29900002,3.5928571,0,3,1,7
92820620,1557478479599541,225909178,1139750434,37923,35279,0.545,0.43895832,5.2780004,5.0820003,1.78,2.11,101,21,0.49500003,-0.347,0.35300002,0.23900001,3.5928571,0,3,1,7
93016803,1557478479799541,225909170,1139750432,38153,35509,0.531,0.4390028,5.1920004,5.07,1.78,2.11,101,21,0.637,-0.367,0.52000004,0.321,3.5928571,0,3,1,7
93216559,1557478479999542,225909164,1139750440,38134,35490,0.78700006,0.43905604,5.031,5.038,1.78,2.11,101,19,0.78000003,-0.707,-0.33,0.347,3.5928571,0,3,1,7
93415679,1557478480199541,225909142,1139750432,38167,35523,0.79700005,0.43910578,4.9740005,5.044,1.78,2.11,101,19,0.21000001,-0.068,0.19900002,0.563,3.5928571,0,3,1,7
93617679,1557478480399541,225909138,1139750428,38206,35562,0.84700006,0.43915868,4.866,5.0160003,1.78,2.11,101,19,0.505,-0.37300003,-0.34,0.20400001,3.5928571,0,3,1,7
93818594,1557478480599541,225909137,1139750417,38287,35643,0.78400004,0.4392077,4.7650003,5.0020003,1.78,2.11,101,19,0.351,-0.28800002,-0.201,0.446,3.5928571,0,3,1,7
94019500,1557478480799541,225909135,1139750411,38522,35878,0.77300006,0.43925607,4.722,5.0070004,1.78,2.11,101,19,0.089,-0.048,-0.075,0.43400002,3.5928571,0,3,1,7
94218605,1557478480999542,225909138,1139750404,38768,36125,0.53900003,0.43928957,4.664,4.9880004,1.78,2.11,101,22,0.172,-0.116000004,0.127,0.17,3.5928571,0,3,1,7
94420481,1557478481199541,225909146,1139750402,38993,36349,0.578,0.4393257,4.5400004,4.946,1.78,2.11,101,22,0.155,-0.12900001,0.086,0.30800003,3.5928571,0,3,1,7
94618486,1557478481399541,225909159,1139750398,39398,36754,0.65400004,0.43936655,4.3580003,4.8840003,1.78,2.11,101,22,0.13800001,-0.13100001,-0.044000003,0.22500001,3.5928571,0,3,1,7
94818524,1557478481599541,225909175,1139750389,39798,37154,0.65400004,0.43940738,4.202,4.8320003,1.78,2.11,101,22,0.12100001,0.022000002,-0.119,0.33100003,3.5928571,0,3,1,7
95015488,1557478481799541,225909191,1139750379,40328,37684,0.60700005,0.43944526,4.0750003,4.7970004,1.78,2.11,101,22,0.016,-0.013,0.009000001,0.231,3.5928571,0,3,1,7
95221832,1557478481999542,225909204,1139750371,40638,37994,0.615,0.43948364,3.943,4.7660003,1.78,2.11,101,18,0.054,-0.049000002,-0.022000002,0.23300001,3.5928571,0,3,1,7
95421489,1557478482199541,225909217,1139750364,41084,38440,0.497,0.43951455,3.828,4.7400002,1.78,2.11,101,18,0.143,0.044000003,0.136,0.21800001,3.5928571,0,3,1,7
95620622,1557478482399541,225909225,1139750354,41450,38806,0.634,0.43955415,3.729,4.722,1.78,2.11,101,18,0.045,-0.027,-0.035,0.17400001,3.5928571,0,3,1,7
95823710,1557478482599541,225909245,1139750341,41982,39338,0.63500005,0.4395938,3.6390002,4.7060003,1.78,2.11,101,18,0.056,-0.018000001,-0.053000003,0.18200001,3.5928571,0,3,1,7
96021538,1557478482799541,225909264,1139750328,42477,39833,0.65300006,0.43963444,3.5570002,4.6930003,1.78,2.11,101,18,0.120000005,-0.068,-0.09900001,0.15,3.5928571,0,3,1,7
96221089,1557478482999542,225909279,1139750315,42936,40292,0.623,0.43967336,3.4840002,4.683,1.78,2.11,102,20,0.030000001,-0.017,-0.024,0.17600001,3.5928571,0,3,1,7
96421821,1557478483199541,225909294,1139750305,43378,40734,0.53800005,0.4397069,3.4090002,4.676,1.78,2.11,102,20,0.033,-0.004,0.033,0.10700001,3.5928571,0,3,1,7
96624582,1557478483399541,225909301,1139750294,43627,40983,0.51600003,0.439739,3.344,4.6740003,1.78,2.11,102,20,0.05,-0.033,-0.038000003,-0.001,3.5928571,0,3,1,7
96821485,1557478483599541,225909304,1139750286,43764,41120,0.467,0.43976814,3.2840002,4.677,1.78,2.11,102,20,0.045,0.002,0.045,0.063,3.5928571,0,3,1,7
97021272,1557478483799541,225909303,1139750279,43830,41186,0.628,0.43980724,3.2280002,4.681,1.78,2.11,102,20,0.044000003,-0.034,-0.029000001,0.102000006,3.5928571,0,3,1,7
97221521,1557478483999542,225909295,1139750267,43824,41180,0.532,0.6918558,3.176,4.6780005,1.78,2.11,102,19,0.531,-0.39900002,-0.35000002,-0.096,3.670418,0,3,1,7
97421485,1557478484199541,225909313,1139750256,44377,41733,0.63600004,0.69188094,3.13,4.625,1.78,2.11,102,19,0.216,0.11400001,0.18400002,-0.066,3.670418,0,3,1,7
97618518,1557478484399541,225909316,1139750252,44452,41808,0.55600005,0.6919031,3.0800002,4.589,1.78,2.11,102,19,0.086,0.086,-0.0050000004,0.157,3.670418,0,3,1,7
97820487,1557478484599541,225909318,1139750244,44510,41866,0.61600006,0.69192755,3.0500002,4.577,1.78,2.11,102,19,0.194,-0.060000002,-0.185,0.20600002,3.670418,0,3,1,7
98020594,1557478484799541,225909322,1139750243,44687,42044,0.66,0.6919537,3.0440001,4.577,1.78,2.11,102,19,0.041,-0.030000001,0.027,0.21000001,3.670418,0,3,1,7
98216521,1557478484999542,225909327,1139750248,44781,42137,1.144,0.6919989,3.0660002,4.5730004,1.78,2.11,108,18,0.21700001,0.016,0.216,0.314,3.670418,0,3,1,7
98419484,1557478485199541,225909332,1139750253,44871,42227,1.033,0.6920399,3.1200001,4.572,1.78,2.11,108,18,0.272,0.020000001,-0.27100003,0.124000005,3.670418,0,3,1,7
98616674,1557478485399541,225909337,1139750260,44969,42325,1.511,0.6920998,3.1650002,4.557,1.78,2.12,108,18,0.257,-0.24900001,-0.064,0.165,3.670418,0,3,1,7
98821550,1557478485599541,225909337,1139750264,45037,42394,1.057,0.6921417,3.1970003,4.5530005,1.78,2.12,108,18,0.119,-0.001,0.119,0.057000004,3.670418,0,3,1,7
99018552,1557478485799541,225909335,1139750267,45084,42440,0.78200006,0.69217277,3.2150002,4.563,1.78,2.12,108,18,0.22700001,0.007,0.22700001,-0.209,3.670418,0,3,1,7
99220488,1557478485999542,225909331,1139750272,45097,42453,0.71900004,0.6922012,3.2220001,4.5740004,1.78,2.12,108,15,0.132,0.007,0.13100001,-0.16800001,3.670418,0,3,1,7
99421545,1557478486199541,225909322,1139750274,45088,42445,0.95600003,0.6922391,3.2220001,4.5810003,1.78,2.12,108,15,0.039,-0.034,-0.018000001,-0.094000004,3.670418,0,3,1,7
99621485,1557478486399541,225909310,1139750275,45049,42405,0.43600002,0.69225633,3.213,4.5740004,1.78,2.12,108,15,0.11100001,-0.061000004,0.093,-0.001,3.670418,0,3,1,7
99821075,1557478486599541,225909298,1139750275,45131,42487,0.48000002,0.6922754,3.2040002,4.5690002,1.78,2.12,108,15,0.21300001,-0.18400002,0.106000006,0.041,3.670418,0,3,1,7
100021481,1557478486799541,225909288,1139750276,45230,42586,0.49600002,0.69229496,3.1940002,4.5820003,1.78,2.12,108,15,0.28800002,-0.21300001,0.194,0.104,3.670418,0,3,1,7
100216587,1557478486999542,225909284,1139750280,45326,42682,0.517,0.69231534,3.186,4.5880003,1.78,2.12,108,22,0.21100001,-0.187,0.098000005,0.21700001,3.670418,0,3,1,7
100417576,1557478487199541,225909278,1139750277,45333,42689,0.878,0.6923501,3.1910002,4.603,1.78,2.12,108,22,0.439,-0.307,-0.314,0.372,3.670418,0,3,1,7
100618619,1557478487399541,225909273,1139750270,45425,42782,1.033,0.6923911,3.2010002,4.622,1.78,2.12,108,22,0.377,-0.060000002,-0.372,0.192,3.670418,0,3,1,7
100817555,1557478487599541,225909269,1139750264,45407,42763,1.0090001,0.6924311,3.216,4.6390004,1.78,2.12,108,22,0.19500001,-0.027,-0.193,0.15100001,3.670418,0,3,1,7
101017541,1557478487799541,225909260,1139750261,45461,42817,1.542,0.6924921,3.2400002,4.6590004,1.78,2.12,108,22,0.39000002,-0.36600003,-0.133,-0.023000002,3.670418,0,3,1,7
101219486,1557478487999542,225909247,1139750260,45494,42850,0.72700006,0.692521,3.2610002,4.6650004,1.78,2.12,101,21,0.282,-0.282,0.015000001,0.19700001,3.670418,0,3,1,7
101416699,1557478488199541,225909230,1139750264,45349,42706,1.241,0.69257,3.269,4.662,1.78,2.12,101,21,0.44300002,-0.272,-0.349,0.14600001,3.670418,0,3,1,7
101616484,1557478488399541,225909202,1139750265,44830,42186,1.054,0.64908373,3.2660003,4.6520004,1.78,2.12,101,21,0.60800004,-0.546,-0.26700002,0.381,3.630829,0,3,1,7
101818551,1557478488599541,225909163,1139750276,44184,41540,0.943,0.6491235,3.255,4.6140003,1.78,2.12,101,21,0.523,-0.523,0.012,0.38000003,3.630829,0,3,1,7
102020481,1557478488799541,225909130,1139750286,43703,41059,0.61200005,0.6491518,3.2440002,4.576,1.78,2.12,101,21,0.54700005,-0.47300002,0.27400002,0.384,3.630829,0,3,1,7
102220548,1557478488999542,225909079,1139750319,42677,40033,0.693,0.6491816,3.229,4.511,1.78,2.12,101,14,0.63900006,-0.6,0.22100002,0.307,3.630829,0,3,1,7
102418576,1557478489199541,225909047,1139750332,42235,39592,0.69000006,0.64921075,3.2270002,4.4900002,1.78,2.12,101,14,0.47700003,-0.47300002,0.061000004,0.25,3.630829,0,3,1,7
102618120,1557478489399541,225909027,1139750333,42249,39605,0.89300007,0.75488997,3.2280002,4.4890003,1.78,2.12,101,14,0.80600005,-0.78800005,-0.172,0.20700002,3.5140316,0,3,1,7
102815488,1557478489599541,225909009,1139750337,42349,39706,0.45400003,0.7549145,3.226,4.491,1.78,2.12,101,14,0.623,-0.523,0.33800003,0.273,3.5140316,0,3,1,7
103017537,1557478489799541,225908997,1139750339,42348,39704,0.69000006,0.75494665,3.223,4.4760003,1.78,2.12,101,14,0.79200006,-0.791,0.031000001,0.39000002,3.5140316,0,3,1,7
103220592,1557478489999542,225908980,1139750345,42214,39570,0.518,0.75497824,3.229,4.484,1.78,2.12,101,18,0.84300005,-0.75500005,0.374,0.21100001,3.5140316,0,3,1,7
103415529,1557478490199541,225908971,1139750353,42460,39816,0.96000004,0.755013,3.232,4.472,1.78,2.12,101,18,0.59800005,-0.57500005,-0.163,0.147,3.5140316,0,3,1,7
103616492,1557478490399541,225908962,1139750358,42554,39911,0.52000004,0.7550362,3.242,4.4890003,1.78,2.12,101,18,0.586,-0.52900004,0.252,0.25,3.5140316,0,3,1,7
103816612,1557478490599541,225908957,1139750367,42698,40054,0.596,0.7550578,3.2510002,4.5080004,1.78,2.12,101,18,0.46,-0.40800002,0.21200001,0.019000001,3.5140316,0,3,1,7
104017319,1557478490799541,225908951,1139750374,42753,40109,0.68100005,0.7550826,3.2570002,4.526,1.78,2.12,101,18,0.58400005,-0.202,0.54800004,0.132,3.5140316,0,3,1,7
104216594,1557478490999542,225908937,1139750379,42862,40218,0.78900003,0.77037555,3.259,4.544,1.78,2.12,101,16,1.0580001,-1.054,0.089,0.07,3.2903972,0,3,1,7
104417482,1557478491199541,225908919,1139750384,42911,40268,0.625,0.7704017,3.2640002,4.5610003,1.78,2.12,101,16,0.625,-0.569,0.261,0.38300002,3.2903972,0,3,1,7
104617493,1557478491399541,225908910,1139750388,43024,40381,0.75900006,0.77043194,3.269,4.564,1.78,2.12,101,16,0.82600003,-0.80200005,0.19800001,0.20700002,3.2903972,0,3,1,7
104819484,1557478491599540,225908891,1139750397,43284,40640,0.92200005,0.59191287,3.2770002,4.558,1.78,2.12,101,16,1.4300001,-1.427,-0.079,0.53300005,3.2314246,0,3,1,7
105020558,1557478491799540,225908872,1139750411,43315,40671,0.48600003,0.5919689,3.2800002,4.5680003,1.78,2.12,101,16,1.1860001,-0.83800006,0.84000003,0.23900001,3.2314246,0,3,1,7
105218555,1557478491999541,225908855,1139750428,43349,40705,0.86600006,0.7395954,3.282,4.5820003,1.78,2.12,108,15,1.207,-1.1980001,0.148,0.409,3.148311,0,3,1,7
105417397,1557478492199540,225908837,1139750445,43361,40717,0.48800004,0.7396424,3.282,4.5870004,1.78,2.12,108,15,1.215,-0.80300003,0.91200006,0.34800002,3.148311,0,3,1,7
105616581,1557478492399540,225908825,1139750462,43695,41051,1.024,0.43321285,3.2840002,4.602,1.78,2.12,108,15,1.4610001,-1.4200001,-0.344,0.22000001,3.3202534,0,3,1,7
105817486,1557478492599540,225908799,1139750469,43956,41312,0.94400007,0.50611126,3.2910001,4.618,1.78,2.12,108,15,1.9990001,-1.9870001,0.21900001,0.17400001,3.1982315,0,3,1,7
106020827,1557478492799540,225908782,1139750497,44714,42070,0.81000006,0.5062332,3.302,4.629,1.78,2.12,108,15,1.4760001,-1.133,0.94600004,-1.702,3.1982315,0,3,1,7
106219487,1557478492999541,225908778,1139750541,45396,42752,0.80300003,0.4207095,3.3060002,4.6340003,1.78,2.12,108,13,2.4550002,-0.19100001,2.4480002,-1.692,2.2815082,0,3,1,7
106421579,1557478493199540,225908775,1139750598,46074,43430,0.827,0.50558764,3.3130002,4.6540003,1.78,2.12,108,13,2.825,-0.78900003,2.7120001,-1.6550001,2.106422,0,3,1,7
106619852,1557478493399540,225908749,1139750638,46078,43435,0.791,0.537243,3.3270001,4.6790004,1.78,2.12,108,13,2.6520002,-1.0810001,2.4220002,-1.09,2.0519528,0,3,1,7
107421550,1557478494199540,225908524,1139750867,44983,42339,1.07,0.293741,3.459,4.762,1.78,2.12,108,9,6.129,-5.6920004,2.275,1.5280001,2.5935495,0,3,1,7
